,changeset,lon,id,timestamp,lat,tags,version,addr:city,addr:country,addr:housenumber,addr:postcode,addr:street,email,name,opening_hours,phone,website,amenity,building,drinking_water,fountain,internet_access,social_facility,source,wikipedia,geometry,osm_type,addr:housename,addr:place,operator,building:levels,parking,start_date
0,0.0,10.969731,344030350,1433077282,43.605846,"{""wheelchair"":""yes""}",6,Castelfiorentino,IT,,50051,Piazza Antonio Gramsci,,Teatro del Popolo,,,,theatre,,,,,,,,POINT (10.969731330871582 43.6058464050293),node,,,,,,
1,0.0,11.1381235,443635877,1489236794,43.82095,"{""wikidata"":""Q3981956""}",3,,,,,,,Teatrodante Carlo Monni,,,,theatre,,,,,,,it:Teatrodante Carlo Monni,POINT (11.138123512268066 43.82094955444336),node,,,,,,
2,0.0,11.189081,533613242,1256139894,43.77226,,3,,,,,,,UCI cinemas,,,,cinema,,,,,,,,POINT (11.189081192016602 43.77225875854492),node,,,,,,
3,0.0,11.185338,533694248,1262444096,43.752964,,6,,,,,,,Supercinema Aurora,,,,cinema,,,,,,,,POINT (11.185338020324707 43.75296401977539),node,,,,,,
4,0.0,11.189051,541185690,1354629514,43.753933,"{""wheelchair"":""yes""}",4,,,,,,,Cinema Cabiria,,,,cinema,,,,,,,,POINT (11.189050674438477 43.75393295288086),node,,,,,,
5,0.0,11.183282,543655663,1330766734,43.75609,,2,,,,,,,,,,,fountain,,,,,,,,POINT (11.183281898498535 43.75608825683594),node,,,,,,
6,0.0,11.183632,554830446,1646753827,43.755936,,3,,,,,,,,,,,fountain,,,,,,,,POINT (11.183631896972656 43.75593566894531),node,,,,,,
7,0.0,11.200978,560422830,1443453909,43.83377,,4,Sesto Fiorentino,,387,50019,Via Antonio Gramsci,,Multisala Grotta,,+39 055 446600,http://www.grotta.it/,cinema,,,,,,,,POINT (11.20097827911377 43.833770751953125),node,,,,,,
8,0.0,11.186044,595572469,1281089172,43.65767,,2,,,,,,,Cinema Everest,,,,cinema,,,,,,,,POINT (11.186043739318848 43.65766906738281),node,,,,,,
9,0.0,11.214673,599676970,1578409452,43.945522,"{""ele"":""423.1""}",2,,,,,,,,,,,fountain,,yes,,,,,,POINT (11.214673042297363 43.94552230834961),node,,,,,,
10,0.0,11.187631,600451657,1295096830,43.658497,,3,,,,,,,,,,,fountain,,,,,,,,POINT (11.187630653381348 43.65849685668945),node,,,,,,
11,0.0,11.453129,700021982,1271526324,44.14601,,1,,,,,,,Fontana Pieve,,,,fountain,,,,,,,,POINT (11.453128814697266 44.14601135253906),node,,,,,,
12,0.0,11.238173,826210811,1322668432,44.000523,,3,,,,,,,,,,,fountain,,,,,,,,POINT (11.23817253112793 44.00052261352539),node,,,,,,
13,0.0,11.249837,861471375,1581940163,43.768135,"{""wikidata"":""Q3747408""}",7,,,,,,,Fontana dello Sprone,,,,fountain,,no,,,,,it:Fontana dello Sprone,POINT (11.249836921691895 43.76813507080078),node,,,,,,
14,0.0,11.140931,1085564299,1489236838,43.573875,"{""wikidata"":""Q3982113""}",3,,,,,,,Teatro Regina Margherita,,,,theatre,,,,,,,it:Teatro Regina Margherita,POINT (11.140931129455566 43.573875427246094),node,,,,,,
15,0.0,11.3188925,1088852932,1533904139,43.58313,,2,,,,,,,Cinema Boito,,,,cinema,,,,,,,,POINT (11.318892478942871 43.5831298828125),node,,,,,,
16,0.0,11.294288,1106035749,1333048191,43.72462,,2,,,,,,,Teatro SMS,,,,theatre,,,,,,,,POINT (11.29428768157959 43.7246208190918),node,,,,,,
17,0.0,11.324362,1106144167,1489236839,43.726032,"{""wikidata"":""Q3879869""}",3,,,,,,,Teatro dell'Antella,,,,theatre,,,,,,,it:Nuovo Teatro Comunale,POINT (11.324361801147461 43.72603225708008),node,,,,,,
18,0.0,11.183375,1192965132,1347122292,43.657497,,2,,,,,,,,,,,fountain,,,,,,,,POINT (11.183375358581543 43.65749740600586),node,,,,,,
19,0.0,11.240608,1260432731,1451322285,43.79527,,3,,,,,,,Cinema Flora Atelier,,,,cinema,,,,,,,,POINT (11.240608215332031 43.79526901245117),node,,,,,,
20,0.0,11.310888,1320582045,1307818945,43.76417,,1,,,,,,,Blanco,,,,nightclub,,,,,,,,POINT (11.310888290405273 43.7641716003418),node,,,,,,
21,0.0,11.310775,1320582052,1307818946,43.764572,,1,,,,,,,Terrazza Martini,,,,nightclub,,,,,,,,POINT (11.310774803161621 43.76457214355469),node,,,,,,
22,0.0,11.228766,1460287946,1328358139,43.82042,,2,,,,,,,,,,,fountain,,,,,,,,POINT (11.228766441345215 43.82041931152344),node,,,,,,
23,0.0,11.106095,1589290143,1326533141,43.76884,,1,,,,,,,,,,,theatre,,,,,,,,POINT (11.106095314025879 43.76884078979492),node,,,,,,
24,0.0,11.106184,1589290251,1326533143,43.768913,,1,,,,,,,,,,,cinema,,,,,,,,POINT (11.106184005737305 43.76891326904297),node,,,,,,
25,0.0,11.241391,1589563179,1489236867,43.79554,"{""wikidata"":""Q3982328""}",3,,,,,,,Teatro di Rifredi,,,,theatre,,,,,,,it:Teatro di Rifredi,POINT (11.2413911819458 43.79553985595703),node,,,,,,
26,0.0,11.566933,1634244806,1338885196,43.86025,,2,,,,,,,,,,,fountain,,,,,,,,POINT (11.566932678222656 43.86024856567383),node,,,,,,
27,0.0,11.198793,1652361845,1330480953,43.758583,,1,,,,,,,,,,,fountain,,,,,,,,POINT (11.198793411254883 43.758583068847656),node,,,,,,
28,0.0,11.184908,1656215348,1330708772,43.756153,,1,,,,,,,,,,,fountain,,,,,,,,POINT (11.184907913208008 43.75615310668945),node,,,,,,
29,0.0,11.260719,1670743564,1331490822,43.77095,,1,,,26r,,Via dei Pandolfini,,Babylon,,,,nightclub,,,,,,,,POINT (11.260719299316406 43.77095031738281),node,,,,,,
30,0.0,11.261227,1680347940,1332093568,43.778816,,1,,,,,,,,,,,fountain,,,,,,,,POINT (11.261226654052734 43.77881622314453),node,,,,,,
31,0.0,11.138168,1750926196,1336908338,43.805527,,1,,,,,,,Circolo MCL Don Renzo Paoli,,,,community_centre,,,,,,,,POINT (11.138168334960938 43.80552673339844),node,,,,,,
32,0.0,11.266391,1834044902,1556574345,43.762054,,3,Firenze,IT,84,50100,Viale Michelangiolo,,flo',,,,nightclub,,,,,,,,POINT (11.266390800476074 43.762054443359375),node,,,,,,
33,0.0,11.296706,1848296246,1489236882,43.766804,"{""wikidata"":""Q3747380""}",4,,,,,,,Fontana dell'Uomo della pioggia,,,,fountain,,,,,,,it:Fontana dell'Uomo della pioggia,POINT (11.296706199645996 43.76680374145508),node,,,,,,
34,0.0,11.453403,1868672979,1641412082,43.722454,,2,,,,,,,Poseidone che dona un cavallo ad Atena,,,,fountain,,,,,,,,POINT (11.45340347290039 43.72245407104492),node,,,,,,
35,0.0,11.184216,1903920071,1489236884,43.657722,"{""wikidata"":""Q3982073""}",3,,,,,,,Teatro Niccolini,,,,theatre,,,,,,,it:Teatro Niccolini (San Casciano in Val di Pesa),POINT (11.184215545654297 43.65772247314453),node,,,,,,
36,0.0,11.236455,1933721349,1348667084,43.81859,,1,,,,,,,,,,,fountain,,,,,,,,POINT (11.236454963684082 43.81858825683594),node,,,,,,
37,0.0,11.237603,1933721350,1348667084,43.819202,,1,,,,,,,,,,,fountain,,,,,,,,POINT (11.237603187561035 43.8192024230957),node,,,,,,
38,0.0,11.247999,2019559882,1489236888,43.79585,"{""wikidata"":""Q3629503""}",3,Firenze,,24,59100,Via Michele Mercati,,Auditorium FLOG,,,,nightclub,,,,,,,it:Auditorium FLOG,POINT (11.24799919128418 43.79584884643555),node,,,,,,
39,0.0,11.26962,2029568189,1353747280,43.76371,,1,,,9,59100,Via della Fornace,,Rooms,,,,nightclub,,,,,,,,POINT (11.269619941711426 43.763710021972656),node,,,,,,
40,0.0,11.228947,2091252665,1626637606,43.791172,"{""brand"":""The Space Cinema"",""brand:wikidata"":""Q3989406"",""brand:wikipedia"":""it:The Space Cinema""}",5,,,,,,,The Space Cinema,,,,cinema,,,,,,,,POINT (11.228946685791016 43.79117202758789),node,,,,,,
41,0.0,11.315759,2125130476,1358950549,43.544914,,1,,,,,,,,,,,fountain,,,,,,,,POINT (11.31575870513916 43.54491424560547),node,,,,,,
42,0.0,11.279279,2178144886,1362043876,43.786453,,1,,,,,,,parco del ventaglio,,,,fountain,,,,,,,,POINT (11.279278755187988 43.78645324707031),node,,,,,,
43,0.0,11.20459,2209921717,1618234811,43.831554,"{""wikidata"":""Q3982299""}",2,,,,,,,Teatro della Limonaia,,,http://www.teatrodellalimonaia.it/,theatre,,,,,,,it:Teatro della Limonaia,POINT (11.20458984375 43.8315544128418),node,,,,,,
44,0.0,11.469926,2291574810,1647715573,43.619705,,2,,,,,,,,,,,fountain,,,,,,,,POINT (11.469925880432129 43.61970520019531),node,,,,,,
45,0.0,11.390261,2317660230,1369342380,43.806305,,1,,,,,,,,,,,fountain,,,,,,,,POINT (11.390260696411133 43.806304931640625),node,,,,,,
46,0.0,11.25272,2361643408,1484016980,43.770767,"{""name:it"":""YAB""}",2,Firenze,IT,1 R,,Via dei Sassetti,,YAB,,,,nightclub,,,,,,Comune di Firenze,,POINT (11.25271987915039 43.77076721191406),node,,,,,,
47,0.0,11.244775,2361701956,1478100760,43.76948,,2,Firenze,IT,17,,Borgo San Frediano,,NoF Club,Mo-Sa 19:30-02:30,,,nightclub,,,,,,Comune di Firenze,,POINT (11.24477481842041 43.76948165893555),node,,,,,,
48,0.0,11.270077,2364507502,1487706300,43.770554,,2,,,,,,,,,,,cinema,,,,,,local_knowledge,,POINT (11.270076751708984 43.77055358886719),node,,,,,,
49,0.0,11.260512,2426833312,1518968066,43.7766,"{""wikidata"":""Q3747461""}",5,,,,,,,Fontane dei mostri marini,,,,fountain,,,,,,,it:Fontane dei mostri marini,POINT (11.260512351989746 43.7765998840332),node,,,,,,
50,0.0,11.260824,2426833324,1518968066,43.776405,"{""wikidata"":""Q3747461""}",5,,,,,,,Fontane dei mostri marini,,,,fountain,,,,,,,it:Fontane dei mostri marini,POINT (11.260824203491211 43.776405334472656),node,,,,,,
51,0.0,11.267675,2750411037,1396033326,43.77435,,1,,,,,,,,,,,fountain,,,,,,,,POINT (11.267675399780273 43.774349212646484),node,,,,,,
52,0.0,11.182177,2831966478,1402468506,43.85769,"{""alt_name"":""Garage club""}",2,Calenzano,,27,,Via delle Cantine,,Asd Factory,,,,nightclub,,,,,,,,POINT (11.18217658996582 43.857688903808594),node,,,,,,
53,0.0,10.945839,2858268146,1628434407,43.719585,,5,,,,,,,Fontana delle Naiadi,,,,fountain,,yes,,,,,,POINT (10.945838928222656 43.71958541870117),node,,,,,,
54,0.0,11.141814,2951148267,1410374610,43.839935,,2,,,,,,,,,,,fountain,,,,,,,,POINT (11.141814231872559 43.839935302734375),node,,,,,,
55,0.0,11.25256,2953868598,1637767324,43.770992,"{""wheelchair"":""no"",""wikidata"":""Q37102232""}",4,,,,,,,Odeon Cinehall,,,http://www.odeonfirenze.com/,cinema,,,,,,,,POINT (11.252559661865234 43.770992279052734),node,,,,,,
56,0.0,11.547637,3067264759,1631569975,44.112247,"{""wikidata"":""Q106906515""}",2,,,,,,,,,,,fountain,,,,,,Bing,,POINT (11.547636985778809 44.112247467041016),node,,,,,,
57,0.0,11.288591,3089718408,1632487228,43.775097,,3,,,,,,,Cinema Fiorella Atelier,,,,cinema,,,,,,,,POINT (11.288591384887695 43.77509689331055),node,,,,,,
58,0.0,11.244541,3097076989,1489236914,43.76485,"{""wikidata"":""Q3982008""}",3,,,,,,,Teatro Goldoni,,,,theatre,,,,,,,it:Teatro Goldoni (Firenze),POINT (11.24454116821289 43.76485061645508),node,,,,,,
59,0.0,11.243725,3112688340,1489236916,43.770172,"{""wikidata"":""Q3982320""}",3,,,,,,,Teatro di Cestello,,,,theatre,,,,,,,it:Teatro di Cestello,POINT (11.243724822998047 43.770172119140625),node,,,,,,
60,0.0,11.266067,3114407759,1489236916,43.782345,"{""wikidata"":""Q3982029""}",3,,,,,,,Teatro Le Laudi,,,,theatre,,,,,,,it:Teatro Le Laudi,POINT (11.266066551208496 43.782344818115234),node,,,,,,
61,0.0,11.2169,3114658086,1489236916,43.77735,"{""wikidata"":""Q3982023""}",3,,,,,,,Teatro La Fiaba,,,,theatre,,,,,,,it:Teatro La Fiaba,POINT (11.216899871826172 43.77735137939453),node,,,,,,
62,0.0,11.26078,3120275179,1546865599,43.769993,"{""wheelchair"":""limited"",""wikidata"":""Q3982191""}",4,,,,,,,Teatro Verdi,,,,theatre,,,,,,,it:Teatro Verdi (Firenze),POINT (11.260780334472656 43.76999282836914),node,,,,,,
63,0.0,11.251048,3213287241,1489236919,43.765842,"{""wikidata"":""Q3076346""}",2,,,,,,,Fontana del Bacchino,,,,fountain,,,,,,,it:Fontana del Bacchino (Boboli),POINT (11.25104808807373 43.76584243774414),node,,,,,,
64,0.0,11.245639,3213287242,1498100465,43.761562,"{""wikidata"":""Q3747376""}",3,,,,,,,Fontana dell'Oceano,,,,fountain,,,,,,,it:Fontana dell'Oceano,POINT (11.245638847351074 43.76156234741211),node,,,,,,
65,0.0,10.969945,3429447058,1489236922,43.605988,"{""wikidata"":""Q3935247""}",3,,,,,,,Ridotto del Teatro del Popolo,,,,theatre,,,,,,,it:Ridotto del Teatro del Popolo,POINT (10.969944953918457 43.605987548828125),node,,,,,,
66,0.0,11.195047,3458479401,1429138413,43.798996,"{""alt_name"":""tnx""}",1,,,,,,,Tenax,,,,nightclub,,,,,,,,POINT (11.195047378540039 43.79899597167969),node,,,,,,
67,0.0,11.038523,3526059745,1431960486,43.54695,,1,,,,,,,,,,,fountain,,,,,,,,POINT (11.038522720336914 43.54695129394531),node,,,,,,
68,0.0,11.285857,3783835487,1489236929,43.78498,"{""wikidata"":""Q3981892""}",2,,,,,,,Teatro 13,,,,theatre,,,,,,,it:Teatro 13,POINT (11.285857200622559 43.78498077392578),node,,,,,,
69,0.0,11.241194,3867849957,1483370312,43.80201,"{""toilets:wheelchair"":""yes"",""wheelchair"":""yes""}",2,Firenze,,36,,Via delle Panche,,Teatro Nuovo Sentiero,,,,theatre,,,,,,,,POINT (11.241193771362305 43.80200958251953),node,,,,,,
70,0.0,11.222734,3914910411,1451322214,43.790802,,1,,,,,,,Cinema CineRigacci,,,,cinema,,,,,,,,POINT (11.222734451293945 43.790802001953125),node,,,,,,
71,0.0,11.2307,3914910412,1451322214,43.81381,,1,,,,,,,Cinema Castello,,,http://www.cinemacastello.it/,cinema,,,,,,,,POINT (11.23069953918457 43.81380844116211),node,,,,,,
72,0.0,11.249929,3914929936,1555363341,43.77252,"{""wikidata"":""Q37102557""}",3,,,,,,,Cinema Spazio Uno,,,https://www.cinemaspaziouno.it/,cinema,,,,,,,,POINT (11.249929428100586 43.772518157958984),node,,,,,,
73,0.0,11.208146,3914930975,1489236930,43.76986,"{""wikidata"":""Q3622140""}",3,,,,,,,Cinema Cinecittà,,,http://www.cinecittafirenze.it/,cinema,,,,,,,it:Arena Cinecittà Teatro San Quirico,POINT (11.208146095275879 43.769859313964844),node,,,,,,
74,0.0,11.272138,3914932159,1588505527,43.783554,,2,,,,,,,Cinema Fiamma,,,,cinema,,,,,,,,POINT (11.272137641906738 43.78355407714844),node,,,,,,
75,0.0,11.245149,3914938240,1539344340,43.7736,"{""wikidata"":""Q37102393""}",2,,,,,,,Cinema Fulgor,,,,cinema,,,,,,,,POINT (11.245148658752441 43.77360153198242),node,,,,,,
76,0.0,11.285636,3914940631,1451322506,43.759697,,1,,,,,,,Cinema Marconi,,,,cinema,,,,,,,,POINT (11.285635948181152 43.75969696044922),node,,,,,,
77,0.0,11.288842,3914951454,1451322781,43.763474,,1,,,,,,,Cinema Officine Cinematografiche - Sala Signori,,,,cinema,,,,,,,,POINT (11.28884220123291 43.76347351074219),node,,,,,,
78,0.0,11.262702,3914951455,1451322781,43.782684,,1,,,,,,,Cinema Principe,,,,cinema,,,,,,,,POINT (11.262701988220215 43.782684326171875),node,,,,,,
79,0.0,11.265432,3914951456,1451322781,43.785385,,1,,,,,,,Cinema Stensen,,,http://www.stensen.org/,cinema,,,,,,,,POINT (11.265432357788086 43.78538513183594),node,,,,,,
80,0.0,11.263802,3914951685,1539344340,43.770905,"{""wikidata"":""Q37102530""}",2,,,,,,,Cinema Spazio Alfieri,,,http://www.spazioalfieri.it/,cinema,,,,,,,,POINT (11.263801574707031 43.770904541015625),node,,,,,,
81,0.0,11.278162,3914951757,1539344340,43.77462,"{""wikidata"":""Q37102485""}",2,,,,,,,Cinema Portico,,,,cinema,,,,,,,,POINT (11.278162002563477 43.774620056152344),node,,,,,,
82,0.0,11.34096,3914962189,1451323209,43.76963,,1,,,,,,,Cinema Unione Girone,,,,cinema,,,,,,,,POINT (11.340959548950195 43.769630432128906),node,,,,,,
83,0.0,11.181624,3927889684,1543484745,43.75816,,2,,,,,,,,,,,fountain,,,,,,,,POINT (11.181624412536621 43.75815963745117),node,,,,,,
84,0.0,11.256102,3930950512,1638203996,43.7738,"{""wheelchair"":""no"",""wikidata"":""Q3982074""}",3,,,,,,,Teatro Niccolini,,,,theatre,,,,,,,it:Teatro Niccolini (Firenze),POINT (11.256101608276367 43.773799896240234),node,,,,,,
85,0.0,11.281485,4221223608,1464858806,43.90633,,1,,,,,,,,,,,fountain,,,,,,,,POINT (11.281484603881836 43.90633010864258),node,,,,,,
86,0.0,11.251872,4348217989,1522596230,43.762997,,4,,,,,,,Neptune,,,,fountain,,,,,,,,POINT (11.251872062683105 43.762996673583984),node,,,,,,
87,0.0,11.251912,4348249600,1510318738,43.764866,"{""artwork_type"":""sculpture"",""name:hu"":""Gan\u00FCm\u00E9d\u00E9sz-k\u00FAt"",""tourism"":""artwork"",""wheelchair"":""limited""}",5,,,,,,,Fontana di Ganimede,,,,fountain,,,,,,,,POINT (11.251912117004395 43.76486587524414),node,,,,,,
88,0.0,11.256088,4369471393,1472760384,43.77062,,2,,,13R,,Via dei Cimatori,,Club 21,,+39 328 9552515,,nightclub,,,,,,,,POINT (11.256088256835938 43.7706184387207),node,,,,,,
89,0.0,11.246305,4434723259,1475775299,43.773666,,1,,,,,,,Space Club,,,,nightclub,,,,,,,,POINT (11.246305465698242 43.77366638183594),node,,,,,,
90,0.0,11.256871,4460556722,1553369452,43.77583,"{""alt_name"":""Casa del Cinema""}",3,Firenze,,50R,50121,Via Cavour,,Cinema Teatro La Compagnia,,,https://www.cinemalacompagnia.it/,cinema,,,,,,,,POINT (11.256871223449707 43.77582931518555),node,,,,,,
91,0.0,11.2453165,4478233989,1478145846,43.778717,,1,,,4,50123,Via Luigi Alamanni,,Tender Club,Fr-Sa 21:30-03:30,,,nightclub,,,,,,,,POINT (11.245316505432129 43.778717041015625),node,,,,,,
92,0.0,11.286523,4478246289,1478147305,43.777397,,1,,,20,50137,Viale Manfredo Fanti,,Glue Alternative Concept Space,,,,nightclub,,,,,,,,POINT (11.28652286529541 43.77739715576172),node,,,,,,
93,0.0,11.260355,4486010620,1489236939,43.77003,"{""wikidata"":""Q3747371""}",2,,,,,,,Fontana dell'Agnellino,,,,fountain,,,,,,,it:Fontana dell'Agnellino,POINT (11.260354995727539 43.7700309753418),node,,,,,,
94,0.0,11.262663,4634644996,1485434505,43.772213,,1,,,,,,,,,,,fountain,,,,,,,,POINT (11.262662887573242 43.772212982177734),node,,,,,,
95,0.0,11.184987,4674944213,1486569004,43.75624,,1,,,,,,,,,,,fountain,,,,,,,,POINT (11.18498706817627 43.75624084472656),node,,,,,,
96,0.0,11.260808,4676674875,1486649473,43.788723,,1,,,,,,,,,,,fountain,,,,,,,,POINT (11.260807991027832 43.78872299194336),node,,,,,,
97,0.0,11.260656,4676674876,1486649473,43.78851,,1,,,,,,,Fontana del Serpente,,,,fountain,,,,,,,,POINT (11.260656356811523 43.788509368896484),node,,,,,,
98,0.0,11.250478,4678685059,1489236940,43.764652,"{""wikidata"":""Q3747348""}",3,,,,,,,Fontana del Carciofo,,,,fountain,,,,,,,it:Fontana del Carciofo (Firenze),POINT (11.25047779083252 43.764652252197266),node,,,,,,
99,0.0,11.264686,4836872392,1493991485,43.7786,,1,,,,,,,,,,,fountain,,,,,,,,POINT (11.26468563079834 43.77859878540039),node,,,,,,
100,0.0,11.265125,4836872542,1493991485,43.77913,,1,,,,,,,,,,,fountain,,,,,,,,POINT (11.265125274658203 43.77912902832031),node,,,,,,
101,0.0,11.250086,4895303688,1556216579,43.762093,,2,,,,,,,Fontana di Mostaccini,,,,fountain,,,,,,,,POINT (11.250085830688477 43.76209259033203),node,,,,,,
102,0.0,11.18515,4941417647,1498707095,43.895084,"{""amenity_1"":""bar"",""amenity_2"":""restaurant""}",1,,,,,,,Circolo ARCI Carraia,,,,social_centre,,,,,,,,POINT (11.185150146484375 43.895084381103516),node,,,,,,
103,0.0,11.252663,5065071765,1506288302,43.773735,"{""wikidata"":""Q3629507""}",2,,,,,,,Auditorium al Duomo,,,,theatre,,,,,,,it:Auditorium al Duomo,POINT (11.252662658691406 43.77373504638672),node,,,,,,
104,0.0,11.339678,5167393656,1507990567,43.8545,,2,,,,,,,Sorgente di Acquinvogliolo,,,,fountain,,,,,,,,POINT (11.339677810668945 43.85449981689453),node,,,,,,
105,0.0,11.321526,5286689622,1513378564,43.76748,"{""name:en"":""House of the people""}",1,,,70,,Via Sant'Andrea a Rovezzano,,Circolo Ricreativo Silvano Corti,,,,community_centre,,,,,,,,POINT (11.321525573730469 43.767478942871094),node,,,,,,
106,0.0,11.230659,5286690022,1513379150,43.813778,"{""name:en"":""House of the people""}",1,,,374,50141,Via Reginaldo Giuliani,,Circolo Ricreativo Culturale Sportivo Arci Castello,,,,community_centre,,,,,,,,POINT (11.230658531188965 43.813777923583984),node,,,,,,
107,0.0,11.225805,5286717721,1525178651,43.817417,"{""name:en"":""Sport association""}",2,Firenze,,518,50141,Via Reginaldo Giuliani,,Sede Atletica Castello,,,http://www.societaatleticacastello.it/,community_centre,,,,,,,,POINT (11.225805282592773 43.81741714477539),node,,,,,,
108,0.0,11.265535,5562094379,1524061075,43.78541,,1,Firenze,,25/G,50129,Viale Don Minzoni,,Fondazione Culturale Niels Stensen,,,http://www.stensen.org,community_centre,,,,,,,,POINT (11.265535354614258 43.7854118347168),node,,,,,,
109,0.0,11.276234,5603996627,1525769283,43.768204,,1,,,,,,,Sala Esse,,,,cinema,,,,,,,,POINT (11.276233673095703 43.76820373535156),node,,,,,,
110,0.0,11.238909,5751198921,1623840835,43.780495,,3,,,33,,Via delle Porte Nuove,,Circolo ARCI dei lavoratori di Porta a Prato,Mo-Sa 10:00-23:59,,,community_centre,,,,,,,,POINT (11.238908767700195 43.780494689941406),node,,,,,,
111,0.0,11.325892,5827135616,1534082195,43.694984,,1,,,,,,,,,,,fountain,,no,,,,,,POINT (11.325892448425293 43.694984436035156),node,,,,,,
112,0.0,11.471304,5871229758,1535725925,43.62126,,1,Figline Valdarno,,15,,Via Roma,,Cinema nuovo,,,,cinema,,,,,,,,POINT (11.471303939819336 43.62126159667969),node,,,,,,
113,0.0,11.22784,5901661723,1536751293,43.7953,,1,,,,,,,,,,,fountain,,,,,,,,POINT (11.227840423583984 43.7952995300293),node,,,,,,
114,0.0,11.121562,6086061485,1542992370,43.80747,,1,,,22,,Via Francesco Baracca,,Circolo ARCI Manetti,,,,community_centre,,,,,,,,POINT (11.121562004089355 43.80746841430664),node,,,,,,
115,0.0,11.252885,6136799451,1544778627,43.765625,,1,,,,,,,,,,,fountain,,,,,,,,POINT (11.252884864807129 43.765625),node,,,,,,
116,0.0,11.230501,6299862708,1551041909,43.777027,"{""name:ru"":""\u0444\u043E\u043D\u0442\u0430\u043D \u0441 \u0440\u044B\u0431\u043A\u0430\u043C\u0438""}",1,,,,,,,,,,,fountain,,,,,,,,POINT (11.230501174926758 43.77702713012695),node,,,,,,
117,0.0,11.24732,6319042838,1551814927,43.766575,,1,,,,,,,,,,,fountain,,,,,,,,POINT (11.247320175170898 43.76657485961914),node,,,,,,
118,0.0,11.523498,6326200104,1634663868,43.89121,,2,,,,,,,,,,,fountain,,,,,,,,POINT (11.523497581481934 43.89120864868164),node,,,,,,
119,0.0,11.523943,6326200121,1634663868,43.89124,,2,,,,,,,,,,,fountain,,,,,,,,POINT (11.523942947387695 43.891239166259766),node,,,,,,
120,0.0,11.225726,6336404930,1552511020,43.771797,,1,,,,,,,Teatro Cantiere Florida,,,https://www.teatroflorida.it,theatre,,,,,,,,POINT (11.225726127624512 43.77179718017578),node,,,,,,
121,0.0,11.297569,6340541440,1552680679,43.771366,,1,,,,,,,Teatro Sancat,,,,theatre,,,,,,,,POINT (11.297569274902344 43.771366119384766),node,,,,,,
122,0.0,11.259373,6391884349,1554754864,43.775326,,1,,,,,,,Pink Street Club,,,,nightclub,,,,,,,,POINT (11.25937271118164 43.775325775146484),node,,,,,,
123,0.0,11.259263,6391884371,1554754865,43.775238,,1,,,,,,,Be Bop,,,,nightclub,,,,,,,,POINT (11.259263038635254 43.775238037109375),node,,,,,,
124,0.0,11.4490185,6410133985,1597342865,43.782265,,2,,,1,,Via Francesco Petrarca,,Circolo Rinascita,,,,community_centre,,,,,,,,POINT (11.449018478393555 43.782264709472656),node,,,,,,
125,0.0,11.257685,6567317385,1561365256,43.768707,,1,,,,,,,The blob club,,,,nightclub,,,,,,,,POINT (11.257684707641602 43.768707275390625),node,,,,,,
126,0.0,11.198278,6685259122,1565033709,43.79124,,1,,,,,,,Il Manduca,,,,nightclub,,,,,,,,POINT (11.198278427124023 43.79124069213867),node,,,,,,
127,0.0,11.242018,6739806224,1566582107,43.811317,,1,,,,,,,,,,,fountain,,,,,,,,POINT (11.24201774597168 43.811317443847656),node,,,,,,
128,0.0,11.232665,6746267903,1566826659,43.815956,,1,,,,,,,,,,,fountain,,,,,,,,POINT (11.232665061950684 43.815956115722656),node,,,,,,
129,0.0,11.232848,6746267904,1566826659,43.816086,,1,,,,,,,,,,,fountain,,,,,,,,POINT (11.232848167419434 43.81608581542969),node,,,,,,
130,0.0,11.235827,6755436969,1567064894,43.829,,1,,,,,,,,,,,fountain,,,,,,,,POINT (11.235827445983887 43.82899856567383),node,,,,,,
131,0.0,11.182092,6776573336,1567762027,43.751698,,1,,,,,,,,,,,fountain,,,,,,,,POINT (11.18209171295166 43.7516975402832),node,,,,,,
132,0.0,11.500556,6791179860,1631182402,43.73211,"{""image"":""https://it.wikiloc.com/percorsi-escursionismo/santellero-saltino-la-via-del-trenino-a-cremagliera-anello-fontisterni-donnini-saltino-raggioli-pat-83334327/photo-53873491""}",2,,,,,,,,,,,fountain,,,,,,,,POINT (11.500555992126465 43.73210906982422),node,,,,,,
133,0.0,11.368371,6996475611,1574346346,44.007374,,1,,,,,,,,,,,fountain,,,,,,,,POINT (11.36837100982666 44.00737380981445),node,,,,,,
134,0.0,11.259089,7146864961,1579539582,43.79027,"{""internet_access:fee"":""no""}",1,Firenze,,25,50139,Via Trieste,direzione@accademiadeiponti.it,Accademia dei Ponti,,+39 055 2698988,https://accademiadeiponti.it/,conference_centre,,,,wlan,,local knowledge,,POINT (11.259089469909668 43.7902717590332),node,,,,,,
135,0.0,11.289598,7288070076,1584010078,43.77107,,1,,,,,,,Chille de la balanza,,,https://www.chille.it,theatre,,,,,,,,POINT (11.28959846496582 43.77106857299805),node,,,,,,
136,0.0,11.253802,7288575859,1584018522,43.74997,,1,,,,,,,Teatro del Cielo,,,,theatre,,,,,,,,POINT (11.253802299499512 43.749969482421875),node,,,,,,
137,0.0,11.170633,7288818306,1584024839,43.794086,,1,,,,,,,Teatro 334 Brozzi,,,,theatre,,,,,,,,POINT (11.170633316040039 43.79408645629883),node,,,,,,
138,0.0,11.298221,7293059937,1584129918,43.740673,,1,,,,,,,,,,,fountain,,,,,,,,POINT (11.29822063446045 43.74067306518555),node,,,,,,
139,0.0,11.247143,7296673415,1584275322,43.76874,,1,,,,,,,"Teatro ""Ottavio Rinuccini""",,,,theatre,,,,,,,,POINT (11.247142791748047 43.768741607666016),node,,,,,,
140,0.0,10.925945,7312453322,1623829497,43.783985,,2,Vinci,IT,37;39,50059,Via Pierino Da Vinci;Via Pierino da Vinci,,Teatro Misericordia Vinci,,,,theatre,,,,,,Regione Toscana,,POINT (10.925945281982422 43.78398513793945),node,,,,,,
141,0.0,10.925966,7312453328,1623829497,43.783955,,2,Vinci,IT,39;37,50059,Via Pierino Da Vinci;Via Pierino da Vinci,,Teatro Misericordia Vinci,,,,theatre,,,,,,Regione Toscana,,POINT (10.925966262817383 43.78395462036133),node,,,,,,
142,0.0,10.926051,7312460133,1623829497,43.783962,,2,Vinci,IT,1;39;37,50059,Parco della Rimembranza;Via Pierino Da Vinci;Via Pierino da Vinci,,Teatro Misericordia Vinci,,,,theatre,,,,,,Regione Toscana,,POINT (10.926051139831543 43.78396224975586),node,,,,,,
143,0.0,10.926118,7312460134,1623829497,43.783985,,2,Vinci,IT,2;39;37,50059,Parco della Rimembranza;Via Pierino Da Vinci;Via Pierino da Vinci,,Teatro Misericordia Vinci,,,,theatre,,,,,,Regione Toscana,,POINT (10.926117897033691 43.78398513793945),node,,,,,,
144,0.0,10.986162,7433274977,1587549454,43.59288,,1,,,,,,,Teatro C'art,,,http://www.teatrocart.com/,theatre,,,,,,,,POINT (10.986162185668945 43.59288024902344),node,,,,,,
145,0.0,11.224236,7474423197,1588450604,43.739178,,1,,,,,,,Casa del Popolo del Galluzzo,,,,community_centre,,,,,,,,POINT (11.224235534667969 43.73917770385742),node,,,,,,
146,0.0,11.23789,7474423254,1588450604,43.73893,,1,,,,,,,Circolo Ricreativo in San Felice a Ema,,,,community_centre,,,,,,,,POINT (11.237890243530273 43.738929748535156),node,,,,,,
147,0.0,11.271846,7475749961,1588505527,43.78325,,1,,,,,,,Circolo aziendale Ataf,,,,community_centre,,,,,,,,POINT (11.271845817565918 43.78324890136719),node,,,,,,
148,0.0,11.437219,7809705556,1597315450,43.77065,,1,,,,,,,,,,,fountain,,,,,,,,POINT (11.43721866607666 43.77064895629883),node,,,,,,
149,0.0,11.437171,7809705557,1597315450,43.770805,,1,,,,,,,,,,,fountain,,,,,,,,POINT (11.43717098236084 43.77080535888672),node,,,,,,
150,0.0,11.43944,7833277885,1598038067,43.775673,,1,,,,,,,,,,,fountain,,,,,,,,POINT (11.43943977355957 43.775672912597656),node,,,,,,
151,0.0,11.436638,7835092362,1599141317,43.770893,,3,,,,,,,Punto Snai,,,,gambling,,,,,,,,POINT (11.436637878417969 43.77089309692383),node,,,,,,
152,0.0,11.436858,7835092363,1599141317,43.77188,,2,,,,,,,Stanleybet,,,,gambling,,,,,,,,POINT (11.436858177185059 43.771881103515625),node,,,,,,
153,0.0,11.213977,7845379989,1598423933,43.94509,,1,,,,,,,,,,,fountain,,yes,,,,,,POINT (11.213976860046387 43.945091247558594),node,,,,,,
154,0.0,11.441499,7875367910,1599217603,43.7745,,1,,,,,,,,,,,cinema,,,,,,,,POINT (11.441498756408691 43.77450180053711),node,,,,,,
155,0.0,11.440493,7893683062,1599744185,43.775536,,1,,,,,,,,,,,theatre,,,,,,,,POINT (11.440492630004883 43.775535583496094),node,,,,,,
156,0.0,11.7089615,7970671529,1601761491,44.080223,,1,,,,,,,,,,,fountain,,no,,,,,,POINT (11.708961486816406 44.080223083496094),node,,,,,,
157,0.0,11.3781395,8493075665,1615068676,43.80469,,1,,,,,,,,,,,fountain,,,,,,,,POINT (11.37813949584961 43.804691314697266),node,,,,,,
158,0.0,11.469959,8596789693,1630676573,43.701633,,3,,,,,,,,,,,fountain,,,,,,Survey:NGTREKKING,,POINT (11.469959259033203 43.70163345336914),node,,,,,,
159,0.0,11.555616,8977356743,1628001748,43.73211,,1,,,,,,,,,,,fountain,,,stone_block,,,,,POINT (11.55561637878418 43.73210906982422),node,,,,,,
160,0.0,11.707553,9213322405,1635666864,43.890873,"{""note"":""aqua di sorgente non potabilizzata""}",1,,,,,,,,,,,fountain,,,,,,,,POINT (11.707552909851074 43.890872955322266),node,,,,,,
161,0.0,11.341422,9246454909,1636733200,43.74311,"{""food"":""cafe"",""toilets"":""customers""}",1,Bagno a Ripoli,,,50012,Via Roma,,Circolo Gustavo Modena,,,,community_centre,mixed_use,,,,social_club,,,POINT (11.341422080993652 43.74311065673828),node,,,,,,
162,0.0,11.432274,9481474564,1644082994,43.62192,"{""bottle"":""no"",""image"":""https://it.wikiloc.com/percorsi-escursionismo/san-martino-a-torreggi-lago-di-sting-palagio-palagina-fattoria-celle-pian-dalbero-94005677/photo-61495672""}",2,,,,,,,,,,,fountain,,,stone_block,,,,,POINT (11.432273864746094 43.62192153930664),node,,,,,,
163,0.0,11.189649,9555952034,1646483201,43.753952,,1,,,,,,,,,,,fountain,,,,,,,,POINT (11.189648628234863 43.75395202636719),node,,,,,,
164,0.0,11.189883,9555952035,1646483201,43.7541,,1,,,,,,,,,,,fountain,,,,,,,,POINT (11.1898832321167 43.75410079956055),node,,,,,,
165,,,24837790,1528367232,,,5,,,,,,,Teatro Puccini,,,,theatre,yes,,,,,,it:Teatro Puccini,"POLYGON ((11.2253323 43.7864292, 11.225678 43.7863261, 11.2257028 43.7863138, 11.2257084 43.786293, 11.2257061 43.7862697, 11.2257126 43.7862466, 11.2257254 43.7862165, 11.2257301 43.7861971, 11.2257276 43.7861765, 11.2257044 43.786162, 11.2254071 43.7859771, 11.2252945 43.7860547, 11.2252677 43.7860897, 11.2250739 43.7860892, 11.2250565 43.7862463, 11.2253424 43.7863087, 11.2253566 43.7863316, 11.2252835 43.7863548, 11.2253323 43.7864292))",way,,,,,,
166,,,48858705,1444683256,,,4,,,,,,,Teatro Comunale,,,,theatre,yes,,,,,,it:Teatro comunale (Barberino di Mugello),"POLYGON ((11.2378733 44.0000164, 11.2378839 43.9997553, 11.2379513 43.9997532, 11.2379533 43.9998158, 11.2381606 43.9998143, 11.2381606 43.9998077, 11.2382066 43.999807, 11.2382076 43.9998231, 11.2382883 43.9998225, 11.2382883 43.9998299, 11.2383925 43.9998276, 11.2383955 44.0000016, 11.2382893 44.0000016, 11.2382893 44.0000097, 11.2378733 44.0000164))",way,,,,,,
167,,,51415613,1410121922,,"{""wheelchair"":""limited""}",3,,,,,,,Teatro di Castelnuovo,,,,theatre,yes,,,,,,,"POLYGON ((10.9387801 43.6350181, 10.9388447 43.6348827, 10.9387568 43.6348608, 10.9388109 43.6347474, 10.9386997 43.6347196, 10.9386367 43.6348516, 10.9387288 43.6348746, 10.9386731 43.6349913, 10.9387801 43.6350181))",way,,,,,,
168,,,88573307,1589092453,,"{""wikidata"":""Q3981976""}",5,Firenze,,4/B,,Via Volterrana,,Cinema Teatro Everest,,,,theatre,public,,,,,,it:Teatro Everest,"POLYGON ((11.2227025 43.7364131, 11.2225363 43.7362306, 11.2228342 43.7361164, 11.2228559 43.7361329, 11.2228985 43.7361158, 11.2229648 43.7361822, 11.2229232 43.7362075, 11.2229423 43.7362289, 11.2227478 43.7363451, 11.2227783 43.7363678, 11.2227025 43.7364131))",way,,,,,,1958
169,,,92413898,1600879963,,,4,,,1q,,Via del Cavallaccio,,Il Kantiere,,,,community_centre,yes,,,,,,,"POLYGON ((11.1919048 43.7740778, 11.1918157 43.773976, 11.1919453 43.7739187, 11.1919226 43.7738941, 11.1919745 43.7738719, 11.1921284 43.7738017, 11.1921462 43.7738263, 11.1922725 43.7737701, 11.19236 43.7738731, 11.1922272 43.7739304, 11.192211 43.7739105, 11.1920279 43.7739971, 11.1920425 43.7740193, 11.1919048 43.7740778))",way,,,,,,
170,,,110537505,1581321978,,,5,,,,,,,SMS di Rifredi,,,,community_centre,yes,,,,,,,"POLYGON ((11.2410199 43.7955008, 11.2412855 43.7956411, 11.2415257 43.7954869, 11.2414746 43.7954485, 11.2415661 43.7953872, 11.2416829 43.7953115, 11.2416141 43.795266, 11.2417344 43.7951765, 11.2418416 43.7951054, 11.2417026 43.7950061, 11.2415309 43.7951281, 11.2415068 43.7951107, 11.2414531 43.7951116, 11.2414209 43.7951368, 11.2413216 43.7952047, 11.2412338 43.7952646, 11.2412953 43.7953071, 11.2411353 43.7954214, 11.2411084 43.7954069, 11.2410199 43.7955008))",way,,,,,,
171,,,112587684,1549401465,,"{""theatre:type"":""open_air""}",4,,,,,,,,,,,theatre,,,,,,,,"POLYGON ((11.2490914 43.7795805, 11.2490332 43.7795542, 11.2489919 43.7795147, 11.24897 43.7794719, 11.2489758 43.7794209, 11.2490029 43.7793797, 11.249055 43.7793426, 11.2491139 43.7793269, 11.2491517 43.7793166, 11.2492359 43.7793319, 11.2492305 43.7793418, 11.2492756 43.7793527, 11.2493084 43.7793818, 11.2493339 43.7794268, 11.2493374 43.7794701, 11.2493217 43.7795183, 11.2492782 43.7795537, 11.2492191 43.7795798, 11.249157 43.7795886, 11.2490914 43.7795805))",way,,,,,,
172,,,117864768,1539344286,,"{""wikidata"":""Q528066""}",4,,,,,,,Teatro Comunale,,,,theatre,yes,,,,,,it:Teatro comunale (Firenze),"POLYGON ((11.2391388 43.7746952, 11.2387589 43.7748681, 11.239325 43.7754856, 11.2396728 43.7753027, 11.2393904 43.7749794, 11.2391388 43.7746952))",way,,,,,,
173,,,118376983,1551217053,,,5,,,,,,,,,,,fountain,,,,,,,,"POLYGON ((11.2473129 43.7665981, 11.2472979 43.7665868, 11.2472989 43.7665668, 11.2473164 43.7665559, 11.2473413 43.766557, 11.2473562 43.7665683, 11.2473552 43.7665883, 11.2473377 43.7665992, 11.2473129 43.7665981))",way,,,,,,
174,,,140235982,1592405728,,,6,,,,,,,Parco della Musica e della Cultura,,,,theatre,,,,,,,,"POLYGON ((11.2359554 43.7784744, 11.236445 43.7790398, 11.2343568 43.7800379, 11.2332786 43.7789186, 11.2343206 43.7784004, 11.2353809 43.777862, 11.2355453 43.7780224, 11.2356184 43.7781103, 11.2359554 43.7784744))",way,,,,,,
175,,,159395911,1647293498,,"{""historic"":""yes"",""image"":""File:Florence - Fontana del Nettuno.jpg"",""loc_name"":""Biancone"",""name:ru"":""\u0424\u043E\u043D\u0442\u0430\u043D \u041D\u0435\u043F\u0442\u0443\u043D\u0430"",""name:zh"":""\u6D77\u795E\u55B7\u6CC9"",""note"":""Bing imagery dislocated at different zoom levels"",""source:geometry"":""Bing aerial imagery (close zoom)"",""wikidata"":""Q645374""}",8,,,,,,,Fontana del Nettuno,,,,fountain,,no,,,,survey,it:Fontana del Nettuno (Firenze),"POLYGON ((11.2559663 43.7696252, 11.2560317 43.7696158, 11.2560457 43.7696006, 11.2560328 43.7695533, 11.2560092 43.7695419, 11.2559459 43.769551, 11.2559309 43.7695672, 11.2559441 43.7696152, 11.2559663 43.7696252))",way,,,,,,1565
176,,,165021199,1338031367,,,1,,,,,,,,,,,fountain,,,,,,,,"POLYGON ((11.2287333 43.8204524, 11.228714 43.8204317, 11.2287176 43.8203996, 11.2287547 43.82038, 11.2287944 43.8203853, 11.2287777 43.8203959, 11.2287573 43.8203947, 11.2287359 43.8204027, 11.2287302 43.8204264, 11.2287443 43.8204415, 11.2287714 43.8204467, 11.2287981 43.8204362, 11.2287991 43.820423, 11.2288174 43.8204128, 11.2288158 43.820443, 11.2287787 43.8204607, 11.2287333 43.8204524))",way,,,,,,
177,,,171884796,1526717505,,"{""toilets:wheelchair"":""yes"",""wheelchair"":""yes""}",5,,,9,50013,Via Fratelli Cervi,,UCI Cinemas,,,,cinema,yes,,,,,,,"POLYGON ((11.1375702 43.8445788, 11.1370048 43.8442184, 11.1364173 43.8435866, 11.1371628 43.8431213, 11.138263 43.8440397, 11.1375702 43.8445788))",way,,,,,,
178,,,172151306,1621262494,,,2,,,,,,,,,,,fountain,,,,,,,,"POLYGON ((11.1558952 43.8809738, 11.1558998 43.8809591, 11.1559106 43.8809463, 11.1559265 43.8809365, 11.1559459 43.8809309, 11.1559667 43.88093, 11.1559868 43.8809339, 11.1560042 43.8809422, 11.1560171 43.880954, 11.1560241 43.8809681, 11.1560246 43.8809832, 11.1560178 43.8809983, 11.1560045 43.8810109, 11.1559861 43.8810196, 11.1559647 43.8810234, 11.1559428 43.8810218, 11.1559229 43.881015, 11.1559072 43.8810039, 11.1558976 43.8809896, 11.1558952 43.8809738))",way,,,,,,
179,,,183323810,1606050289,,,3,,,,,,,"Aula magna ""Giovanni Ferrari""",,,,conference_centre,yes,,,,,,,"POLYGON ((11.3028409 43.780365, 11.3027631 43.7802798, 11.3028412 43.7802416, 11.3028463 43.7802391, 11.3029061 43.7801986, 11.3028727 43.7801745, 11.3029643 43.7801326, 11.3029858 43.7801578, 11.3030126 43.7801365, 11.303085 43.7801926, 11.3031145 43.7802372, 11.3031306 43.7802798, 11.3029214 43.7803301, 11.3028409 43.780365))",way,,,,,,
180,,,183323870,1636989677,,,6,,,,,,,Media center,,,,conference_centre,yes,,,,,,,"POLYGON ((11.3017493 43.780148, 11.3016996 43.7800875, 11.3016771 43.7800602, 11.3016584 43.7800374, 11.3016136 43.779983, 11.3016752 43.7799566, 11.3016871 43.7799515, 11.3017731 43.7799147, 11.3018325 43.7798892, 11.3018024 43.7798525, 11.3019293 43.7797981, 11.301958 43.779833, 11.3021717 43.7797414, 11.3022064 43.7797836, 11.3022519 43.7798389, 11.3022925 43.7798883, 11.3023089 43.7799083, 11.3017493 43.780148))",way,,,,,,
181,,,185578443,1625587316,,,2,,,,,,,Nuovo Teatro Pacini,,,,theatre,yes,,,,,,,"POLYGON ((10.8085207 43.7272166, 10.8087143 43.7269971, 10.8085086 43.7269023, 10.8084043 43.7270205, 10.8082214 43.7269362, 10.808132 43.7270375, 10.8085207 43.7272166))",way,,,,,,
182,,,232146031,1454760091,,,2,,,,,,,"Filarmonica ""G. Puccini""",,,,theatre,yes,,,,,,,"POLYGON ((11.3997632 43.8125773, 11.3998991 43.8125778, 11.3999005 43.8123973, 11.3997646 43.8123967, 11.3997632 43.8125773))",way,,,,,,
183,,,235790240,1434922597,,,2,,,,,,,Teatro Nuovo,,,,theatre,yes,,,,,,it:Teatro Nuovo (Firenze),"POLYGON ((11.2298332 43.8068233, 11.2300657 43.8067075, 11.2298113 43.8064318, 11.2296865 43.8064924, 11.2298247 43.8066473, 11.229718 43.8066987, 11.2298332 43.8068233))",way,,,,,,
184,,,246933736,1638958113,,,3,,,,,Via Giacomo Veronelli,,Casa del Guidi,,,,community_centre,yes,,,,,,,"POLYGON ((11.207673 43.8350353, 11.2079604 43.8349121, 11.2080343 43.8348918, 11.2080443 43.8351182, 11.2079423 43.8351661, 11.207903 43.8351187, 11.2079839 43.8350828, 11.2079557 43.8350479, 11.2077649 43.8351262, 11.207673 43.8350353))",way,,,,,,
185,,,251323316,1386761657,,,1,,,,,,,Cinema Buondelmonti,,,,cinema,yes,,,,,,,"POLYGON ((11.2549231 43.6847602, 11.2549436 43.6848031, 11.2548955 43.684812, 11.2549197 43.6848601, 11.2548731 43.6848725, 11.2548383 43.6848001, 11.2548118 43.6848068, 11.2547873 43.6847602, 11.2548986 43.6847307, 11.2549129 43.6847263, 11.2549231 43.6847602))",way,,,,,,
186,,,251323317,1386761657,,,1,,,,,,,Cinema Sotto Le Stelle,,,,cinema,,,,,,,,"POLYGON ((11.254872 43.6847239, 11.2554216 43.6845806, 11.2554165 43.6845636, 11.2555116 43.6845392, 11.2554901 43.6844794, 11.2554523 43.6843974, 11.255343 43.6844181, 11.2553563 43.6844727, 11.2548066 43.6846087, 11.254872 43.6847239))",way,,,,,,
187,,,254859464,1389042205,,,2,,,,,,,Circolo MDL La Sportiva,,,,community_centre,house,,,,,,,"POLYGON ((11.0686117 43.7463046, 11.0687705 43.7461734, 11.0686291 43.7460841, 11.0684703 43.7462153, 11.0686117 43.7463046))",way,,,,,,
188,,,268365658,1630527685,,,2,,,,,,,Circolo Spazio 86,,,,social_centre,yes,,,,,,,"POLYGON ((11.3065518 43.7611091, 11.3066772 43.7611295, 11.306711 43.761021, 11.3067544 43.7610281, 11.3067826 43.7609377, 11.3066745 43.7609201, 11.3066466 43.7610093, 11.3065861 43.7609994, 11.3065518 43.7611091))",way,,,,,,
189,,,300176480,1618049758,,"{""wikidata"":""Q3982041""}",2,Calenzano,,18,50041,Via Pietro Mascagni,,Teatro Manzoni,,,,theatre,yes,,,,,,it:Teatro Manzoni (Calenzano),"POLYGON ((11.1595603 43.8615531, 11.1596824 43.8615531, 11.1596824 43.8613065, 11.1595603 43.8613065, 11.1595603 43.8615531))",way,,,Teatro delle Donne,,,
190,,,308574883,1425316975,,,2,,,,,,,Cycle Club,,,http://www.cycleclub.it/,nightclub,yes,,,,,,,"POLYGON ((11.1724749 43.8625631, 11.1726416 43.8625437, 11.1726972 43.8627911, 11.1725305 43.8628106, 11.1724749 43.8625631))",way,,,,,,
191,,,354323946,1434550107,,,1,,,,,,,,,,,fountain,,,,,,,,"POLYGON ((11.1887183 43.8652034, 11.1887094 43.8652037, 11.1887009 43.865202, 11.1886937 43.8651982, 11.1886886 43.865193, 11.1886862 43.8651868, 11.1886867 43.8651808, 11.1886898 43.8651752, 11.1886952 43.8651705, 11.1887024 43.8651674, 11.1887106 43.865166, 11.1887189 43.8651666, 11.1887266 43.865169, 11.1887328 43.865173, 11.188737 43.8651783, 11.1887386 43.8651846, 11.1887373 43.8651909, 11.1887331 43.8651966, 11.1887265 43.8652009, 11.1887183 43.8652034))",way,,,,,,
192,,,359825509,1615733003,,,4,,,,,,,,,,,fountain,,,,,,,,"POLYGON ((11.2487009 43.757733, 11.2487304 43.757736, 11.2487568 43.7577461, 11.2487779 43.7577635, 11.2487884 43.7577837, 11.2487892 43.7578023, 11.2487806 43.7578229, 11.2487559 43.7578443, 11.2487294 43.7578542, 11.2487058 43.7578569, 11.2486763 43.7578537, 11.2486408 43.757837, 11.2486247 43.7578188, 11.2486182 43.7577926, 11.2486244 43.7577716, 11.2486392 43.7577542, 11.2486624 43.7577407, 11.2487009 43.757733))",way,,,,,,
193,,,361581432,1619114815,,"{""wikidata"":""Q3982142""}",5,,,,,,,Teatro Shalom,,,,theatre,yes,,,,,,it:Teatro Shalom,"POLYGON ((10.9541205 43.7212131, 10.9541881 43.7208648, 10.9542105 43.7208671, 10.9543344 43.7208792, 10.954324 43.7209346, 10.9544155 43.7209435, 10.9544062 43.7209936, 10.9545625 43.7210088, 10.9545543 43.7210524, 10.954529 43.721188, 10.9544663 43.7211819, 10.9543299 43.721169, 10.9543184 43.7212326, 10.9542382 43.721225, 10.9541205 43.7212131))",way,,,,,,
194,,,370435375,1630418923,,"{""wikidata"":""Q108329215""}",2,,,,,,,,,,,fountain,,no,,,,Bing,,"POLYGON ((10.9751537 43.7411546, 10.9751579 43.7411024, 10.9752328 43.7411055, 10.9752286 43.7411577, 10.9751537 43.7411546))",way,,,,,,
195,,,374999317,1619114815,,"{""wikidata"":""Q3945227""}",2,,,,,,,Sala Duemila,,,,theatre,yes,,,,,,it:Sala Duemila,"POLYGON ((10.9359987 43.7199018, 10.9361747 43.7198909, 10.9361972 43.7195409, 10.9360152 43.7195431, 10.9359987 43.7199018))",way,,,,,,
196,,,374999318,1519308121,,,2,,,,,,,Teatro Boito,,,,theatre,yes,,,,,,it:Teatro Boito,"POLYGON ((11.3187309 43.5832684, 11.3187526 43.5832781, 11.3188865 43.5833167, 11.3189431 43.5833322, 11.3189866 43.5832722, 11.3191914 43.5832623, 11.319237 43.5832392, 11.3192529 43.5831085, 11.3188996 43.5830739, 11.3188115 43.5831178, 11.3187309 43.5832684))",way,,,,,,
197,,,388280851,1555363262,,,3,Firenze,,46,,Via Giandomenico Romagnosi,,,,,https://www.cinemaadriano.it/,cinema,yes,,,,,,,"POLYGON ((11.2467644 43.7929817, 11.2467422 43.7929624, 11.2467174 43.7929407, 11.2466626 43.7928929, 11.2465178 43.7927729, 11.2465929 43.7927361, 11.2467028 43.7926935, 11.2467994 43.7926703, 11.2469153 43.7926551, 11.2469544 43.7927726, 11.247014 43.7928871, 11.2469496 43.7928968, 11.2469496 43.7929258, 11.2468906 43.7929336, 11.246896 43.7929568, 11.2467644 43.7929817))",way,Cinema Adriano,,,,,
198,,,388314081,1466721134,,,3,,,,,,,Teatro Giotto,,,,theatre,yes,,,,,,it:Teatro Giotto (Vicchio),"POLYGON ((11.465492 43.9341448, 11.4654323 43.9338655, 11.4655691 43.9338503, 11.4656289 43.9341297, 11.465492 43.9341448))",way,,,,,,
199,,,395175927,1454278478,,"{""historic"":""yes""}",1,,,,,,,Fonte di Citerna (rudere),,,,fountain,,,,,,,,"POLYGON ((11.3577527 43.8096642, 11.357686 43.8096509, 11.3576738 43.8096826, 11.3577405 43.8096959, 11.3577527 43.8096642))",way,,,,,,
200,,,395175931,1454278478,,,1,,,,,,,Ninfeo del Poggione,,,,fountain,,,,,,,,"POLYGON ((11.3526306 43.8169258, 11.3527107 43.8169338, 11.3526786 43.8171125, 11.3525719 43.8170938, 11.3526306 43.8169258))",way,,,,,,
201,,,396267401,1555363327,,"{""smoking"":""no""}",2,,,,,,,Viper Theatre,,+39 055 019 5912,https://www.viperclub.eu/,nightclub,yes,,,,,,,"POLYGON ((11.1755499 43.7925433, 11.1756285 43.7925371, 11.17575 43.7925413, 11.1758758 43.7925547, 11.1759873 43.7925732, 11.1760602 43.7925887, 11.1760559 43.792597, 11.1761173 43.7926135, 11.1760616 43.7927466, 11.1760201 43.7928209, 11.17577 43.7927414, 11.1757857 43.7927084, 11.1757271 43.7926919, 11.1756636 43.7926724, 11.1755999 43.7926455, 11.1755236 43.7926042, 11.1755125 43.7925962, 11.1755347 43.7925425, 11.1755499 43.7925433))",way,,,,,,
202,,,425156915,1618049758,,,2,,,,,,,Teatro di Villa Peragallo,,,,theatre,yes,,,,,,,"POLYGON ((11.1582433 43.863098, 11.1583274 43.8629963, 11.1586742 43.8631455, 11.15859 43.8632472, 11.1582433 43.863098))",way,,,,,,
203,,,425193940,1466022899,,,1,,,,,,,,,,,fountain,,,,,,,,"POLYGON ((11.449532 43.6114277, 11.4495689 43.61141, 11.4495844 43.61138, 11.4495725 43.6113491, 11.4495378 43.6113291, 11.4494935 43.6113278, 11.4494566 43.6113455, 11.4494412 43.6113756, 11.4494531 43.6114065, 11.4494878 43.6114264, 11.449532 43.6114277))",way,,,,,,
204,,,444464467,1628434407,,"{""note"":""Circa 300 posti""}",3,Empoli,,59,50053,Via del Giglio,teatroilmomento@gmail.com,Il Momento,,+39 0571 73280,,theatre,yes,,,,,,,"POLYGON ((10.9468507 43.7195891, 10.9470697 43.7196027, 10.9470822 43.7194972, 10.9468759 43.7194855, 10.946752 43.7194782, 10.9467345 43.7195819, 10.9468507 43.7195891))",way,,,Parrocchia S. Andrea,,,
205,,,449366439,1477398651,,,1,,,,,,,,,,,fountain,,,,,,,,"POLYGON ((11.2140598 43.78668, 11.2140154 43.7867037, 11.2140837 43.7867708, 11.2141283 43.7867473, 11.2140598 43.78668))",way,,,,,,
206,,,458715846,1604743237,,,4,,,,,,,NewStaz,Mo-Fr 09:30-22:00; Sa 08:30-16:00,,https://www.newstaz.it/newstaz/,community_centre,government,,,,,,,"POLYGON ((11.1937823 43.7682891, 11.1935006 43.768141, 11.1935842 43.7680581, 11.1937078 43.7681231, 11.1938443 43.7679876, 11.1937797 43.7679537, 11.1938478 43.7678862, 11.1940705 43.7680033, 11.1937823 43.7682891))",way,,,,,,
207,,,461544774,1617113217,,,4,,,,,,,Sonoria,,,,social_centre,yes,,,,,,,"POLYGON ((11.1962953 43.7799822, 11.1963869 43.7798764, 11.1963049 43.7798415, 11.1963024 43.7798255, 11.1963514 43.7797669, 11.1962664 43.7797273, 11.1962623 43.779712, 11.1962178 43.7796914, 11.196193 43.7796932, 11.1961115 43.7796553, 11.1960587 43.7797181, 11.1960389 43.7797215, 11.1960073 43.7797559, 11.1960125 43.7797694, 11.1959601 43.7798298, 11.1960417 43.7798669, 11.1960471 43.7798837, 11.1960981 43.7799071, 11.1961201 43.7799026, 11.1962953 43.7799822))",way,,,,,,
208,,,461544805,1601411100,,,3,,,,,,,,,,,social_centre,yes,,,,,,,"POLYGON ((11.1955862 43.779992, 11.1956362 43.7799359, 11.19563 43.7799192, 11.1956614 43.7798826, 11.1956862 43.7798782, 11.1957354 43.7798226, 11.1958163 43.7798589, 11.1958423 43.7798559, 11.1958925 43.7798817, 11.1958982 43.7798959, 11.1959778 43.7799333, 11.1959251 43.779994, 11.1959292 43.7800077, 11.1958977 43.7800447, 11.1959294 43.7800594, 11.1959391 43.7800639, 11.1958875 43.7801212, 11.1957841 43.7800729, 11.1957774 43.780079, 11.1957535 43.7800674, 11.1957219 43.7800716, 11.1956693 43.7800474, 11.195665 43.7800272, 11.1955862 43.779992))",way,,,,,,
209,,,461721824,1627572308,,,4,,,95,50142,Via di San Bartolo a Cintoia,cdpsanbartolo@gmail.com,Casa del Popolo di San Bartolo a Cintoia,,+39055786356,https://sanbartoloacintoia.wordpress.com,social_centre,yes,,,,,,,"POLYGON ((11.1900276 43.7789122, 11.1900181 43.7786925, 11.1901302 43.77869, 11.1901285 43.7786523, 11.1901879 43.7786509, 11.1901891 43.7786791, 11.1902364 43.778678, 11.190235 43.7786461, 11.1902734 43.7786452, 11.1902848 43.7789064, 11.1900276 43.7789122))",way,,,,,,
210,,,463430105,1558182280,,,2,,,,,,,,,,,fountain,,,,,,,,"POLYGON ((11.2648342 43.7641717, 11.2649254 43.764177, 11.2649367 43.7641752, 11.2649452 43.7641683, 11.2649452 43.7641614, 11.2649433 43.7641553, 11.2649395 43.7641507, 11.2649318 43.7641484, 11.2648396 43.7641429, 11.2648306 43.7641456, 11.2648229 43.7641498, 11.2648204 43.7641563, 11.264821 43.7641646, 11.2648342 43.7641717))",way,,,,,,
211,,,464432359,1608310597,,"{""operator:type"":""association""}",3,Firenze,,157,50142,Via Lunga,,Circolo ARCI Le Torri,,,,community_centre,yes,,,,,,,"POLYGON ((11.2031098 43.7748801, 11.2029735 43.7747945, 11.2032044 43.7746036, 11.203318 43.7746757, 11.2032543 43.774728, 11.2032757 43.7747416, 11.2031098 43.7748801))",way,,,ARCI,,,
212,,,464694289,1600888917,,,3,,,,,,,,,,,community_centre,government,,,,,,,"POLYGON ((11.2849031 43.7590517, 11.2848839 43.7589443, 11.2849633 43.7589369, 11.2849825 43.7590443, 11.2849031 43.7590517))",way,,,,,,
213,,,464802112,1483995236,,"{""wheelchair"":""yes""}",1,,,,,,,Teatro Reims,,,,theatre,yes,,,,,,it:Teatro Reims,"POLYGON ((11.2920355 43.7597368, 11.2920378 43.7598939, 11.292102 43.7598934, 11.2923944 43.7598904, 11.2923954 43.759936, 11.2923956 43.7599555, 11.2926138 43.7599538, 11.2926104 43.7597323, 11.2920355 43.7597368))",way,,,,,,
214,,,465381475,1609010099,,,6,Firenze,IT,73,,Via Giampaolo Orsini,,L'Affratellamento,,,http://www.affratellamento.it/,theatre,yes,,,,,,,"POLYGON ((11.2755968 43.7631405, 11.2755961 43.7632126, 11.2757194 43.7632135, 11.2757194 43.7631428, 11.2755968 43.7631405))",way,,,,,,
215,,,468527394,1646857485,,"{""image"":""https://it.wikiloc.com/percorsi-cammino/loppiano-fattoria-di-tracolle-e-lago-borri-il-ferrale-torrione-anello-95478698/photo-62383597"",""wheelchair"":""yes""}",3,,,,,,accoglienza@loppiano.it,Auditorium,"Mo-Fr 10:30-12:00, 15:30-18:30",+39 0559051102,www.loppiano.it/auditorium/C/auditorium,community_centre,yes,,,,,,,"POLYGON ((11.4295744 43.665989, 11.4295384 43.6659836, 11.4295145 43.66598, 11.4294606 43.6659677, 11.4294151 43.6660261, 11.4293772 43.6660119, 11.4293602 43.6660055, 11.42935 43.6660006, 11.4293084 43.6659805, 11.4292589 43.6659561, 11.4291939 43.6659159, 11.4291492 43.6658727, 11.429193 43.6658159, 11.4291693 43.6657921, 11.4291165 43.6658414, 11.4290922 43.6658201, 11.4290671 43.6657003, 11.4291374 43.6656559, 11.4291265 43.6656421, 11.4291901 43.6656089, 11.4292835 43.6656864, 11.4294024 43.6656615, 11.4295099 43.6656447, 11.4295103 43.6656644, 11.4295106 43.6656774, 11.4295139 43.6658304, 11.4295257 43.6658627, 11.4295447 43.6659149, 11.4295585 43.6659485, 11.4295744 43.665989))",way,,,,,,
216,,,470592421,1627571017,,,2,,,,,,,Teatro del Borgo,,,,theatre,yes,,,,,,,"POLYGON ((11.1901896 43.7791416, 11.190023 43.7790065, 11.190141 43.7789558, 11.1902172 43.7790286, 11.1903053 43.7791127, 11.1902211 43.7791486, 11.1902054 43.7791331, 11.1901896 43.7791416))",way,,,,,,
217,,,470592429,1627572308,,"{""operator:type"":""association""}",2,Firenze,,95,50142,Via di San Bartolo a Cintoia,,Casa del Popolo di San Bartolo a Cintoia,,,,social_centre,yes,,,,,,,"POLYGON ((11.1903053 43.7791127, 11.1904846 43.7790375, 11.1904017 43.7789331, 11.1903263 43.7789599, 11.1903397 43.7789812, 11.1902172 43.7790286, 11.1903053 43.7791127))",way,,,ARCI,,,
218,,,472912450,1603907713,,,3,Firenze,,92/14,,Via della Casella,,Social Club,,,,community_centre,government,,,,,,,"POLYGON ((11.1939185 43.772949, 11.1938541 43.7728727, 11.1941882 43.7727256, 11.1942526 43.7728019, 11.1939185 43.772949))",way,,,,,,
219,,,473590748,1627571729,,"{""operator:type"":""association""}",5,,,,,,,Casa del Popolo di Ponte a Greve,,,,social_centre,yes,,,,,,,"POLYGON ((11.1912437 43.7679515, 11.191325 43.7680027, 11.1914418 43.7678941, 11.1915039 43.7678382, 11.1915508 43.7678624, 11.1915897 43.7678924, 11.1916487 43.7678517, 11.1915991 43.7678207, 11.1916232 43.7677965, 11.1915374 43.7677278, 11.1915012 43.7677549, 11.1914663 43.7677375, 11.1913215 43.767875, 11.1912437 43.7679515))",way,,,ARCI,,,
220,,,491607923,1493991493,,,1,,,,,,,,,,,fountain,,,,,,,,"POLYGON ((11.2637408 43.77804, 11.2637253 43.7780441, 11.2637088 43.7780441, 11.2636933 43.77804, 11.2636806 43.7780324, 11.2636742 43.7780252, 11.2636697 43.7780137, 11.263671 43.7780018, 11.2636778 43.777991, 11.2636911 43.7779816, 11.2637063 43.7779769, 11.2637228 43.7779763, 11.2637386 43.7779798, 11.263751 43.7779863, 11.2637603 43.7779962, 11.2637644 43.7780077, 11.2637628 43.7780196, 11.2637556 43.7780303, 11.2637408 43.77804))",way,,,,,,
221,,,522855138,1647715573,,"{""historic"":""yes"",""name:de"":""Garibaldi-Theater"",""name:en"":""Garibaldi Theatre"",""wikidata"":""Q3981996""}",3,,,,,,,Teatro Garibaldi,,,,theatre,yes,,,,,,it:Teatro Garibaldi (Figline Valdarno),"POLYGON ((11.4692652 43.6194268, 11.4692866 43.6193957, 11.4694502 43.6194501, 11.4695717 43.6193606, 11.4696058 43.6193355, 11.4695629 43.6192948, 11.4695844 43.6190385, 11.4696058 43.6190482, 11.4696434 43.6189996, 11.4695935 43.6189733, 11.4694449 43.6189161, 11.469174 43.6192909, 11.4690962 43.6192656, 11.4690533 43.6193588, 11.4692652 43.6194268))",way,,,,,,
222,,,522881743,1635181378,,"{""studio"":""television""}",3,Figline e Incisa Valdarno,,96,50063,Via Fiorentina,,RTV38,,+39055913811,http://www.rtv38.com/wordpress/,studio,yes,,,,,,,"POLYGON ((11.4533119 43.6385435, 11.4531588 43.6384577, 11.4533495 43.6382543, 11.4535158 43.6383358, 11.4534889 43.6383591, 11.4540442 43.6386581, 11.4539029 43.6387851, 11.4538564 43.6388269, 11.453328 43.6385299, 11.4533119 43.6385435))",way,,,,,,
223,,,527020942,1556291653,,,4,Empoli,,75,50053,Via Cosimo Ridolfi,,Cinema Excelsior,,+39 0571 72023,,cinema,yes,,,,,,,"POLYGON ((10.9477802 43.7208184, 10.9478029 43.720616, 10.9479802 43.7206267, 10.9479594 43.7208268, 10.9477802 43.7208184))",way,,,,,,
224,,,532615841,1634928509,,"{""food"":""cafe"",""toilets"":""customers""}",2,,,,,,,,,,,community_centre,mixed_use,,,,social_club,,,"POLYGON ((11.3831261 43.7212118, 11.3828231 43.7210711, 11.3828027 43.721094, 11.3826926 43.7210429, 11.3827102 43.721023, 11.3826068 43.720975, 11.3826527 43.7209233, 11.3827296 43.720959, 11.3827725 43.7209107, 11.3826746 43.7208652, 11.3827512 43.720779, 11.3829939 43.7208917, 11.3829548 43.7209357, 11.3832498 43.7210727, 11.3831261 43.7212118))",way,,,,,,
225,,,533577924,1639233142,,"{""wheelchair"":""yes""}",3,Troghi,,2,50067,Piazza della Resistenza Antifascista,,Casa del Popolo di Troghi,,,,community_centre,mixed_use,,,,,,,"POLYGON ((11.3955418 43.7144475, 11.3954675 43.7142575, 11.3956271 43.7142249, 11.3957013 43.714415, 11.3955418 43.7144475))",way,,,,2,,
226,,,536318477,1635006573,,"{""food"":""cafe"",""theatre:type"":""stage"",""toilets"":""customers""}",2,,,,,,,,,,,community_centre,mixed_use,,,,social_club,,,"POLYGON ((11.3447407 43.730658, 11.3446295 43.7306, 11.3446486 43.7305809, 11.3444653 43.7304853, 11.3445797 43.7303708, 11.3448741 43.7305244, 11.3447407 43.730658))",way,,,,,yes,
227,,,543151726,1578859296,,"{""building:colour"":""#f6eed9"",""height"":""15.0"",""roof:colour"":""#9c7676"",""roof:height"":""3.0"",""roof:shape"":""hipped""}",3,,,8,,Via Gino Venni,,Casa del Popolo Quinto Alto,,,,community_centre,yes,,,,,,,"POLYGON ((11.2199847 43.8302859, 11.2200332 43.8303864, 11.2197621 43.830455, 11.2197136 43.8303545, 11.2199847 43.8302859))",way,,,,,,
228,,,662908306,1547393704,,"{""natural"":""water"",""wikidata"":""Q3747438""}",1,,,,,,,Fontana di piazza Santa Croce,,,,fountain,,,,,,,it:Fontana di piazza Santa Croce,"POLYGON ((11.2607642 43.7691267, 11.2607682 43.7691297, 11.2607707 43.7691335, 11.2607712 43.7691377, 11.2607697 43.7691417, 11.2607665 43.7691452, 11.2607618 43.7691477, 11.2607563 43.7691489, 11.2607509 43.7691487, 11.2607458 43.7691473, 11.2607416 43.7691449, 11.2607387 43.7691416, 11.2607374 43.7691378, 11.2607377 43.7691339, 11.2607398 43.7691303, 11.2607433 43.7691273, 11.260748 43.7691253, 11.2607532 43.7691245, 11.260759 43.7691249, 11.2607642 43.7691267))",way,,,,,,
229,,,673221325,1551217052,,,1,,,,,,,,,,,fountain,,,,,,,,"POLYGON ((11.2476603 43.7672924, 11.2476492 43.7672778, 11.2476539 43.7672632, 11.2476734 43.7672543, 11.2476962 43.7672582, 11.2477073 43.7672728, 11.2477025 43.7672874, 11.247683 43.7672964, 11.2476603 43.7672924))",way,,,,,,
230,,,673446742,1551295759,,,1,,,,,,,,,,,fountain,,,,,,,,"POLYGON ((11.2502964 43.7755753, 11.2502995 43.77557, 11.2502957 43.7755663, 11.2502927 43.7755605, 11.2502917 43.7755547, 11.2502958 43.7755495, 11.2502998 43.775546, 11.2503067 43.7755442, 11.2503142 43.7755449, 11.250317 43.7755402, 11.2503233 43.7755422, 11.25033 43.7755406, 11.2503379 43.7755401, 11.2503462 43.7755417, 11.250353 43.7755441, 11.2503588 43.7755471, 11.2503642 43.7755495, 11.2503661 43.7755529, 11.2503678 43.7755558, 11.2503729 43.7755574, 11.25037 43.7755624, 11.2503728 43.775566, 11.2503763 43.7755702, 11.2503782 43.7755741, 11.2503784 43.7755775, 11.2503736 43.7755839, 11.2503688 43.7755868, 11.2503637 43.7755883, 11.2503549 43.7755882, 11.2503524 43.7755924, 11.2503475 43.775591, 11.2503402 43.7755915, 11.2503326 43.7755915, 11.2503259 43.775591, 11.2503192 43.7755892, 11.2503132 43.7755858, 11.2503081 43.7755823, 11.2503029 43.7755773, 11.2502964 43.7755753))",way,,,,,,
231,,,673620766,1551366047,,,1,,,,,,,,,,,fountain,,,,,,,,"POLYGON ((11.2585746 43.7791421, 11.2585519 43.7791166, 11.2585883 43.7790996, 11.2586111 43.7791251, 11.2585746 43.7791421))",way,,,,,,
232,,,673625079,1551366607,,,1,,,,,,,,,,,fountain,,,,,,,,"POLYGON ((11.2495687 43.7786402, 11.2495533 43.7786374, 11.2495356 43.7786274, 11.2495283 43.7786172, 11.2495262 43.7786055, 11.2495298 43.7785943, 11.2495344 43.7785883, 11.2495456 43.7785801, 11.2495612 43.778575, 11.2495771 43.7785743, 11.249592 43.7785775, 11.2496049 43.7785842, 11.2496139 43.7785938, 11.2496177 43.778605, 11.249617 43.7786133, 11.2496114 43.778624, 11.2496034 43.7786313, 11.24959 43.7786376, 11.2495687 43.7786402))",way,,,,,,
233,,,678665919,1553266236,,,1,,,,,,,La Perla,,,,cinema,yes,,,,,,,"POLYGON ((10.9470955 43.7187778, 10.9470989 43.7187405, 10.9470738 43.7187393, 10.9470768 43.7187063, 10.9470459 43.7187048, 10.947049 43.7186714, 10.9470724 43.7184516, 10.9470977 43.7184527, 10.9471058 43.7183537, 10.9472428 43.7183596, 10.9472404 43.718469, 10.9472816 43.7184709, 10.9472791 43.7184948, 10.9472733 43.7185539, 10.9472618 43.7186756, 10.9472609 43.7186857, 10.9472121 43.7186834, 10.947203 43.718783, 10.9470955 43.7187778))",way,,,,,,
234,,,690889344,1558182277,,,1,,,,,,,,,,,fountain,,,,,,,,"POLYGON ((11.264658 43.7639056, 11.2646548 43.7639296, 11.265159 43.7639507, 11.2651592 43.7639302, 11.264658 43.7639056))",way,,,,,,
235,,,690889362,1558182278,,,1,,,,,,,,,,,fountain,,,,,,,,"POLYGON ((11.2648486 43.7636608, 11.2650518 43.7636681, 11.2651839 43.7638525, 11.2646814 43.7638289, 11.2648486 43.7636608))",way,,,,,,
236,,,691745229,1558552162,,"{""old_name"":""Teatro tenda"",""old_name_1"":""Saschall"",""old_name_2"":""Obihall""}",1,,,,,,,Tuscany Hall,,,https://www.tuscanyhall.it,theatre,,,,,,,it:Teatro Obihall,"POLYGON ((11.2955875 43.7668652, 11.2954439 43.7664894, 11.2955055 43.7664766, 11.2956391 43.7664472, 11.2956316 43.7664314, 11.2959637 43.7663445, 11.2962378 43.7662809, 11.2963016 43.7662625, 11.2963258 43.7662645, 11.2963396 43.7663004, 11.2963606 43.7662961, 11.2963692 43.7663177, 11.2964572 43.7665546, 11.2964894 43.7665492, 11.2965216 43.766617, 11.2965189 43.7666499, 11.2965001 43.7666767, 11.2964733 43.766698, 11.2964277 43.76671, 11.2955875 43.7668652))",way,,,,,,
237,,,700557421,1561831215,,,1,,,,,,,,,,,fountain,,,,,,,,"POLYGON ((11.2416713 43.8126489, 11.2416522 43.8126399, 11.2416301 43.8126358, 11.2416073 43.8126372, 11.2415864 43.8126439, 11.2415697 43.8126552, 11.241559 43.8126697, 11.2415555 43.812686, 11.2415594 43.8127021, 11.2415703 43.8127163, 11.2415869 43.8127273, 11.2416076 43.8127338, 11.2416301 43.8127351, 11.241652 43.8127312, 11.2416709 43.8127224, 11.2416849 43.8127096, 11.2416925 43.812694, 11.2416926 43.8126776, 11.2416853 43.8126619, 11.2416713 43.8126489))",way,,,,,,
238,,,705876269,1592271083,,"{""access"":""customers"",""height"":""3.83"",""lgbtq"":""yes""}",3,Firenze,IT,161,50054,Via Romana Lucchese,,Mulin del Topo,,,,swingerclub,residential,,,,,,,"POLYGON ((10.731657 43.7621638, 10.7314799 43.7620661, 10.7313953 43.7621467, 10.7313024 43.7620956, 10.7314653 43.7619401, 10.7316681 43.7620517, 10.7317356 43.7620889, 10.731657 43.7621638))",way,,Fucecchio,,2,,
239,,,717736012,1566587136,,,1,,,,,,,,,,,fountain,,,,,,,,"POLYGON ((11.1886753 43.4935504, 11.1887692 43.4935932, 11.1887826 43.4935816, 11.1887974 43.4935894, 11.1888228 43.4935602, 11.1888081 43.4935524, 11.1888175 43.4935388, 11.1887182 43.493496, 11.1887102 43.4935067, 11.1886927 43.4935008, 11.1886659 43.493529, 11.1886834 43.4935358, 11.1886753 43.4935504))",way,,,,,,
240,,,719296543,1566986331,,,1,,,,,,,,,,,fountain,,,,,,,,"POLYGON ((11.2364482 43.8246664, 11.2364298 43.8246646, 11.2364116 43.8246674, 11.2363958 43.8246744, 11.2363842 43.8246849, 11.2363783 43.8246976, 11.2363786 43.824711, 11.2363852 43.8247236, 11.2363972 43.8247338, 11.2364115 43.8247399, 11.2364276 43.8247427, 11.2364441 43.8247418, 11.2364595 43.8247373, 11.2364723 43.8247297, 11.2364813 43.8247197, 11.2364857 43.8247082, 11.2364846 43.8246948, 11.2364774 43.8246824, 11.2364647 43.8246726, 11.2364482 43.8246664))",way,,,,,,
241,,,719407939,1567004967,,,1,,,,,,,,,,,fountain,,,,,,,,"POLYGON ((11.2276078 43.8225699, 11.2275972 43.8225708, 11.2275876 43.8225743, 11.2275801 43.8225798, 11.2275756 43.8225868, 11.2275747 43.8225945, 11.2275773 43.822602, 11.2275833 43.8226084, 11.2275913 43.8226128, 11.2276007 43.8226152, 11.2276107 43.8226153, 11.2276202 43.8226131, 11.2276284 43.822609, 11.2276343 43.8226032, 11.2276374 43.8225963, 11.2276374 43.8225891, 11.227634 43.8225818, 11.2276273 43.8225757, 11.2276182 43.8225716, 11.2276078 43.8225699))",way,,,,,,
242,,,720158788,1567160201,,,1,,,,,,,,,,,fountain,,,,,,,,"POLYGON ((11.2682121 43.8106378, 11.2682344 43.8106489, 11.2682552 43.8106478, 11.2682652 43.8106367, 11.2682652 43.8106206, 11.2682491 43.8106101, 11.2682252 43.8106106, 11.2682114 43.8106195, 11.2682121 43.8106378))",way,,,,,,
243,,,750493308,1574953097,,,2,,,,,,,Arena Chiardiluna,,,,cinema,,,,,,,,"POLYGON ((11.2343541 43.7694735, 11.2341368 43.7692178, 11.2346089 43.7690125, 11.2347269 43.76915, 11.2343809 43.7693437, 11.2344426 43.7694328, 11.2343541 43.7694735))",way,,,,,,
244,,,772145362,1581597853,,,1,,,,,,,,,,,fountain,,,,,,,,"POLYGON ((11.126034 43.797099, 11.1260614 43.7970325, 11.1259692 43.7970127, 11.1259467 43.7970775, 11.126034 43.797099))",way,,,,,,
245,,,837593971,1597592028,,"{""description"":""Specializzata nel settore della circomotricit\u00E0. Progetti e percorsi sportivi inclusivi e di sostegno a tutti i bambini, con particolare attenzione alle disabilit\u00E0, in collaborazione con le scuole e con la ASL""}",1,,,,,,,Circo Tascabile,,,,theatre,yes,,,,,,,"POLYGON ((11.4371663 43.7700579, 11.4371253 43.7700515, 11.4371119 43.7700456, 11.4370896 43.7700358, 11.4370641 43.7700134, 11.4370497 43.7699864, 11.437048 43.7699575, 11.4370591 43.7699296, 11.4370819 43.7699058, 11.437114 43.7698885, 11.4371521 43.7698794, 11.4371922 43.7698796, 11.4372302 43.769889, 11.437262 43.7699066, 11.4372852 43.7699318, 11.4372954 43.7699611, 11.4372917 43.7699912, 11.4372743 43.7700187, 11.4372452 43.7700404, 11.4372078 43.770054, 11.4371663 43.7700579))",way,,,Associazione sportiva dilettantistica Circo Tascabile,,,
246,,,865016304,1603978180,,,1,,,,,,,,,,,fountain,,,,,,,,"POLYGON ((11.2029108 43.8447056, 11.2029247 43.8447125, 11.2029346 43.8447223, 11.2029394 43.8447339, 11.2029385 43.844746, 11.202932 43.8447573, 11.2029207 43.8447663, 11.2029059 43.844772, 11.2028905 43.8447739, 11.2028751 43.8447722, 11.2028611 43.8447671, 11.2028501 43.8447592, 11.202843 43.8447491, 11.2028406 43.844738, 11.2028431 43.8447269, 11.2028503 43.8447169, 11.2028624 43.8447085, 11.2028777 43.8447035, 11.2028945 43.8447025, 11.2029108 43.8447056))",way,,,,,,
247,,,866058040,1636414769,,"{""image"":""https://it.wikiloc.com/percorsi-escursionismo/leccio-sammezzano-roncicatoio-chiesa-leccio-la-loggia-88440053/photo-57658403""}",3,,,,,,,,,,,fountain,,,,,,Istat 2001 - geodati.gfoss.it;MISE - Ministero Sviluppo Economico;Regione Toscana;Survey:NGTREKKING,,"POLYGON ((11.4730831 43.7027938, 11.4730655 43.7027996, 11.4730513 43.7028091, 11.4730419 43.7028213, 11.4730384 43.7028351, 11.473041 43.7028489, 11.4730495 43.7028615, 11.4730631 43.7028715, 11.4730816 43.7028782, 11.4731022 43.70288, 11.4731224 43.7028767, 11.4731398 43.7028687, 11.4731526 43.7028569, 11.4731591 43.7028427, 11.4731587 43.7028277, 11.4731514 43.7028138, 11.4731379 43.7028024, 11.4731213 43.7027952, 11.4731024 43.7027923, 11.4730831 43.7027938))",way,,,,,,
248,,,879578385,1606809742,,,1,,,,,,,,,,,fountain,,,,,,,,"POLYGON ((11.2516499 43.7823863, 11.2516537 43.7823927, 11.2516547 43.7823996, 11.2516525 43.7824064, 11.2516475 43.7824124, 11.2516402 43.782417, 11.2516313 43.7824196, 11.2516216 43.7824201, 11.2516198 43.7824198, 11.2516123 43.7824185, 11.2516035 43.7824143, 11.2515972 43.7824083, 11.251594 43.7824012, 11.2515944 43.7823936, 11.2515983 43.7823866, 11.2516053 43.782381, 11.2516144 43.7823774, 11.2516248 43.7823762, 11.251635 43.7823776, 11.2516434 43.7823811, 11.2516499 43.7823863))",way,,,,,,
249,,,880074806,1606896175,,,1,,,,,,,,,,,fountain,,,,,,,,"POLYGON ((11.261894 43.7839367, 11.2618895 43.7839397, 11.2618838 43.7839416, 11.2618777 43.7839421, 11.2618714 43.783941, 11.2618659 43.7839386, 11.2618619 43.7839349, 11.2618598 43.7839305, 11.2618598 43.7839258, 11.2618619 43.7839214, 11.261866 43.7839178, 11.2618714 43.7839153, 11.2618777 43.7839143, 11.2618842 43.7839149, 11.2618898 43.7839168, 11.2618942 43.7839199, 11.2618971 43.7839239, 11.261898 43.7839283, 11.261897 43.7839327, 11.261894 43.7839367))",way,,,,,,
250,,,936072240,1619553739,,,1,,,,,,,,,,,fountain,,,,,,,,"POLYGON ((11.3131362 43.891926, 11.3131244 43.8919168, 11.3131261 43.8919038, 11.3131384 43.8918963, 11.3131568 43.8918973, 11.3131696 43.891906, 11.3131687 43.8919196, 11.3131544 43.8919271, 11.3131362 43.891926))",way,,,,,,
251,,,941014862,1620571028,,,1,,,,,,,,,,,fountain,,,,,,,,"POLYGON ((11.3011896 43.8569317, 11.3011812 43.8569304, 11.3011726 43.8569311, 11.3011649 43.8569339, 11.3011589 43.8569384, 11.3011554 43.8569441, 11.3011548 43.8569503, 11.3011572 43.8569563, 11.3011622 43.8569614, 11.3011685 43.8569647, 11.3011759 43.8569664, 11.3011837 43.8569664, 11.3011911 43.8569647, 11.3011975 43.8569614, 11.3012021 43.8569569, 11.3012046 43.8569516, 11.3012048 43.856946, 11.3012021 43.8569401, 11.3011969 43.8569351, 11.3011896 43.8569317))",way,,,,,,
252,,,953203405,1623371522,,,1,,,,,,,,,,,fountain,,,,,,,,"POLYGON ((11.2620848 43.7750203, 11.2620953 43.7750167, 11.2620999 43.7750119, 11.2620996 43.7750072, 11.2620984 43.7749993, 11.2620897 43.7749934, 11.2620765 43.7749923, 11.2620689 43.7749965, 11.2620635 43.7750046, 11.2620633 43.7750105, 11.2620696 43.7750167, 11.262077 43.7750193, 11.2620848 43.7750203))",way,,,,,,
253,,,953215807,1623379644,,,1,,,,,,,,,,,fountain,,,,,,,,"POLYGON ((11.2627665 43.7760221, 11.2627595 43.7760204, 11.2627525 43.776017, 11.2627496 43.7760149, 11.2627472 43.7760111, 11.2627446 43.7760063, 11.2627452 43.7759987, 11.2627499 43.775993, 11.2627554 43.7759913, 11.2627612 43.7759894, 11.2627738 43.7759883, 11.2627834 43.7759923, 11.2627861 43.7759961, 11.2627904 43.7760037, 11.2627907 43.7760086, 11.2627834 43.7760153, 11.2627755 43.7760191, 11.2627665 43.7760221))",way,,,,,,
254,,,965657639,1626706720,,,1,,,,,,,,,,,fountain,,,,,,,,"POLYGON ((11.258156 43.8120748, 11.2581968 43.8120741, 11.2581958 43.8120435, 11.258155 43.8120442, 11.258156 43.8120748))",way,,,,,,
255,,,974050387,1629208386,,"{""description"":""Fontana risalente al 1924""}",1,,,,,,,"Fontana Monumentale ""Delcroix""",,,,fountain,,,,,,,,"POLYGON ((11.5367689 43.7295647, 11.536752 43.7295567, 11.5367469 43.7295484, 11.5367459 43.729538, 11.5367504 43.7295272, 11.5367611 43.7295171, 11.5367758 43.7295147, 11.5367655 43.7295295, 11.5367624 43.7295429, 11.5367675 43.7295511, 11.5367786 43.7295565, 11.5367912 43.7295656, 11.5367689 43.7295647))",way,,,,,,1924
256,,,1012160563,1639500334,,"{""image"":""https://it.wikiloc.com/percorsi-escursionismo/fonte-santa-sentiero-bc-i-loti-parco-fonte-santa-poggio-di-casa-al-monte-poggio-firenze-90397363/photo-59028827"",""lit"":""no""}",1,,,,,,,,,,,fountain,,no,,,,,,"POLYGON ((11.3695849 43.707728, 11.3695018 43.7076737, 11.3695192 43.7076601, 11.3696024 43.7077144, 11.3695849 43.707728))",way,,,,,,
257,,,1034907680,1645742640,,"{""image"":""https://it.wikiloc.com/percorsi-escursionismo/lucolena-in-chianti-monte-donini-monte-san-michele-torsoli-dimezzano-anello-95128936/photo-62164604""}",2,,,,,,,,,,,fountain,,,,,,,,"POLYGON ((11.3846083 43.5525644, 11.3845969 43.5525413, 11.3846742 43.5525248, 11.3846856 43.5525479, 11.3846083 43.5525644))",way,,,,,,
258,,,1034919836,1645742640,,"{""image"":""https://it.wikiloc.com/percorsi-escursionismo/lucolena-in-chianti-monte-donini-monte-san-michele-torsoli-dimezzano-anello-95128936/photo-62165396""}",2,,,,,,,,,,,fountain,,,,,,,,"POLYGON ((11.3905474 43.5603245, 11.3905319 43.5603521, 11.3905186 43.5603483, 11.390533 43.5603215, 11.3905474 43.5603245))",way,,,,,,
259,0.0,,2298388837,1491730227,,"{""theatre:genre"":""philharmonic"",""type"":""multipolygon""}",2,,,,,,,Teatro dell'Opera - Maggio Musicale Fiorentino,,,,theatre,public,,,,,,it:Teatro dell'Opera di Firenze,"POLYGON ((11.2347045 43.7798058, 11.2344 43.7794752, 11.2337861 43.7788088, 11.2341722 43.7786208, 11.2345359 43.7784437, 11.2354207 43.7780129, 11.2354614 43.7780648, 11.2355435 43.7780272, 11.2356259 43.7781144, 11.2353224 43.7782625, 11.2354565 43.7784175, 11.2356336 43.7786144, 11.2359399 43.7784717, 11.2360766 43.7786256, 11.2357974 43.7787608, 11.2360707 43.779071, 11.2347045 43.7798058), (11.235584 43.7792326, 11.2353967 43.7790259, 11.2355681 43.7789449, 11.2357554 43.7791516, 11.235584 43.7792326))",relation,,,,,,
260,0.0,,3332379027,1495825646,,"{""type"":""multipolygon"",""wikidata"":""Q1261970""}",4,,,,,,,Teatro della Pergola,,,,theatre,yes,,,,,,it:Teatro della Pergola,"POLYGON ((11.2621423 43.7733216, 11.2621122 43.7732861, 11.2618414 43.7729651, 11.2617295 43.7728282, 11.2616146 43.772708, 11.261482 43.772592, 11.2614324 43.772616, 11.2614873 43.7726678, 11.2616227 43.7727908, 11.2614842 43.7728607, 11.2614765 43.7728572, 11.2614134 43.7728848, 11.2614335 43.7729058, 11.2612902 43.7729733, 11.2612397 43.772914, 11.2612704 43.7728956, 11.261213 43.7728461, 11.2610765 43.7729234, 11.2611072 43.7729485, 11.2611724 43.7729346, 11.2612204 43.7730038, 11.2610156 43.7731059, 11.2615271 43.7736154, 11.2618163 43.7734632, 11.2618338 43.7734814, 11.2618433 43.7734964, 11.2619761 43.7734392, 11.2619627 43.7734235, 11.2621423 43.7733216), (11.2616655 43.7730657, 11.2615945 43.7729795, 11.2616322 43.7729634, 11.2617031 43.7730495, 11.2616655 43.7730657), (11.2615979 43.7734691, 11.261556 43.7734171, 11.2615911 43.7734023, 11.261633 43.7734544, 11.2615979 43.7734691), (11.2611099 43.773069, 11.2611865 43.7730286, 11.2611989 43.7730408, 11.2611223 43.7730812, 11.2611099 43.773069))",relation,,,,,,
261,0.0,,17853252703,1615546909,,"{""historic"":""building"",""type"":""multipolygon""}",2,,,,,,,Castello di Barberino,,,https://www.castellobarberino.com/,events_venue,yes,,,,,,,"MULTIPOLYGON (((11.2416775 44.0061637, 11.2416014 44.0060697, 11.2418074 44.0059836, 11.2418834 44.0060776, 11.2416775 44.0061637)), ((11.2413818 44.0054737, 11.24137 44.0054605, 11.2413059 44.0054901, 11.2413352 44.005523, 11.2413993 44.0054934, 11.2414583 44.0055344, 11.2413698 44.0056213, 11.2412303 44.0055682, 11.2411887 44.0056386, 11.241174 44.0058065, 11.2412209 44.0059097, 11.2414476 44.0059, 11.2414261 44.0057341, 11.2415359 44.005625, 11.2416957 44.0058672, 11.2418861 44.0058103, 11.2417104 44.0055296, 11.241693 44.0055364, 11.2416192 44.0054949, 11.2414999 44.0054708, 11.2414392 44.0054602, 11.2413818 44.0054737)))",relation,,,,,,
