,changeset,lon,id,timestamp,lat,tags,version,addr:city,addr:country,addr:housenumber,addr:housename,addr:postcode,addr:street,email,name,opening_hours,operator,phone,url,website,amenity,drinking_water,fountain,gambling,internet_access,office,source,start_date,wikipedia,geometry,osm_type,addr:place,building,building:levels,landuse,library
0,0.0,9.15463,29978509,1642276533,45.452396,"{""screen"":""4"",""wheelchair"":""yes"",""wikidata"":""Q107289743""}",7,,,,,,,,Ducale,,,,,,cinema,,,,,,,,,POINT (9.154629707336426 45.452396392822266),node,,,,,
1,0.0,9.216144,250051812,1348253061,45.52194,"{""wheelchair"":""limited""}",6,,,,,,,,Europlex Bicocca,,,,,,cinema,,,,,,,,,POINT (9.216143608093262 45.52193832397461),node,,,,,
2,0.0,9.194629,251291809,1488657535,45.47111,"{""wikidata"":""Q3982043""}",4,Milano,IT,42,,,Via Alessandro Manzoni,info@teatromanzoni.it,Teatro Manzoni,,,+39 02 7636901,,http://www.teatromanzoni.it/manzoni/,theatre,,,,,,,1960,it:Teatro Manzoni (Milano),POINT (9.194628715515137 45.47111129760742),node,,,,,
3,0.0,9.192365,251293086,1635981904,45.465122,"{""brand"":""The Space Cinema"",""brand:wikidata"":""Q3989406"",""brand:wikipedia"":""it:The Space Cinema"",""wheelchair"":""yes""}",9,Milano,IT,8,,20121,Via Santa Radegonda,,The Space Cinema Odeon,,The Space Cinema,,,https://www.thespacecinema.it/al-cinema/milano-odeon,cinema,,,,,,,,,POINT (9.192364692687988 45.46512222290039),node,,,,,
4,0.0,9.198601,251899002,1481322994,45.4598,,6,,,,,,,,,,,,,,fountain,,,,,,,,,POINT (9.198600769042969 45.459800720214844),node,,,,,
5,0.0,9.164488,252635403,1225730786,45.48924,"{""created_by"":""Potlatch 0.10f""}",2,,,,,,,,OutOff,,,,,,theatre,,,,,,,,,POINT (9.164487838745117 45.48923873901367),node,,,,,
6,0.0,9.164539,252635404,1532423492,45.487976,,4,,,4,,,Via Domenico Cucchiari,,Teatro della Memoria,,,,,,theatre,,,,,,,,,POINT (9.164539337158203 45.48797607421875),node,,,,,
7,0.0,9.240543,255138301,1470958320,45.487995,,4,,,,,,,,Garden,,,,,,cinema,,,,,,,,,POINT (9.240543365478516 45.48799514770508),node,,,,,
8,0.0,9.160182,256234964,1580723683,45.493572,"{""studio"":""radio"",""wikidata"":""Q3928791""}",2,Milano,,5,,20155,Via Ulderico Ollearo,,Radio Popolare,,,,,https://www.radiopopolare.it/,studio,,,,,,,,it:Radio Popolare,POINT (9.160181999206543 45.49357223510742),node,,,,,
9,0.0,9.202023,258034830,1246292210,45.448246,"{""created_by"":""JOSM""}",2,,,,,,,,Teatro Sant'Andrea,,,,,,theatre,,,,,,,,,POINT (9.202022552490234 45.448246002197266),node,,,,,
10,0.0,9.422502,261666496,1209767150,45.50018,"{""created_by"":""Potlatch 0.8c""}",1,,,,,,,,Teatro Trivulzio,,,,,,theatre,,,,,,,,,POINT (9.422501564025879 45.500179290771484),node,,,,,
11,0.0,9.161861,268616396,1350858420,45.46655,,2,,,,,,,,Gloria,,,,,,cinema,,,,,,,,,POINT (9.161861419677734 45.466548919677734),node,,,,,
12,0.0,9.169526,268616425,1640620971,45.456944,"{""screen"":""3"",""wheelchair"":""limited"",""wikidata"":""Q37158536""}",7,Milano,IT,50,,,Viale Coni Zugna,info@orfeomultisala.com,Orfeo,,,+39 02 89403039,,http://www.orfeomultisala.com/,cinema,,,,,,,,,POINT (9.169526100158691 45.45694351196289),node,,,,,
13,0.0,9.212114,279829028,1444465785,45.502296,,2,,,,,,,,Greco,,,,,,theatre,,,,,,,,,POINT (9.212114334106445 45.502296447753906),node,,,,,
14,0.0,9.184771,281885884,1510943341,45.466644,"{""wikidata"":""Q371138""}",6,Milano,IT,2/B,,20121,Via Rovello,,Piccolo Teatro Grassi,,Piccolo Teatro,,,,theatre,,,,,,,,it:Piccolo Teatro (Milano),POINT (9.184770584106445 45.466644287109375),node,,,,,
15,0.0,9.161566,282017584,1269976066,45.471172,,2,,,,,,,,,,,,,,fountain,,,,,,,,,POINT (9.161565780639648 45.47117233276367),node,,,,,
16,0.0,9.176065,283049460,1217761047,45.479378,"{""created_by"":""JOSM""}",1,,,,,,,,Teatro Verga,,,,,,theatre,,,,,,,,,POINT (9.176065444946289 45.47937774658203),node,,,,,
17,0.0,9.194376,298986173,1582814246,45.475197,"{""studio"":""radio"",""wikidata"":""Q3745693"",""description"":""Radio 105, Radio Monte Carlo, Virgin Radio, R101""}",6,Milano,IT,1,,20121,Largo Guido Donegani,,RadioMediaset,,,,,http://www.105.net,studio,,,,,,,,it:RadioMediaset,POINT (9.194375991821289 45.475196838378906),node,,,,,
18,0.0,9.176087,332510971,1521558582,45.55148,,2,Cusano Milanino,,7,,,Via Isonzo,,Circolo A. Grandi,,Acli,+39 339 3473389,,,community_centre,,,,,,,,,POINT (9.176087379455566 45.55147933959961),node,,,,,
19,0.0,9.199821,358878181,1547223600,45.488235,,5,,,,,,,,Don Bosco,,,,,,cinema,,,,,,,,,POINT (9.199821472167969 45.48823547363281),node,,,,,
20,0.0,8.974955,364789282,1237750367,45.55557,,1,,,,,,,,,,,,,,fountain,,,,,,,,,POINT (8.974954605102539 45.55556869506836),node,,,,,
21,0.0,9.151803,380370490,1614365098,45.44278,,3,,,,,,,,BiTTe,,,,,,nightclub,,,,,,,,,POINT (9.151803016662598 45.442779541015625),node,,,,,
22,0.0,9.213111,435189356,1338807713,45.46998,,2,,,,,,,,Tieffe Teatro,,,,,,theatre,,,,,,,,,POINT (9.21311092376709 45.46997833251953),node,,,,,
23,0.0,9.193855,438108545,1538506731,45.46358,"{""wikidata"":""Q32009493""}",9,,,,,,,,Fontana del Piermarini,,,,,,fountain,,,,,,,,,POINT (9.193855285644531 45.46358108520508),node,,,,,
24,0.0,9.198335,439207301,1553687864,45.46714,,6,Milano,IT,2/A,,20121,Corso Venezia,info@teatrosanbabilamilano.it,Teatro San Babila,,,+39 02 798010,,https://www.teatrosanbabilamilano.it/,theatre,,,,,,,,,POINT (9.198334693908691 45.467140197753906),node,,,,,
25,0.0,9.221798,439208909,1483550180,45.448223,,3,Milano,,70,,20137,Via Tertulliano,,Spazio Tertulliano,,,,,,theatre,,,,,,,,,POINT (9.221797943115234 45.44822311401367),node,,,,,
26,0.0,9.176784,439209165,1639132692,45.455162,"{""capacity"":""96"",""wikidata"":""Q18420560""}",3,Milano,IT,11,,20123,Via Gaudenzio Ferrari,info@teatroi.org,Teatro i,,,+39 02 8323156,,https://www.teatroi.org/,theatre,,,,,,,,it:Teatro i,POINT (9.176783561706543 45.455162048339844),node,,,,,
27,0.0,9.217881,441580391,1541081309,45.440613,"{""wheelchair"":""yes""}",3,,,,,,,,Teatro della 14a,,,,,,theatre,,,,,,,,,POINT (9.217881202697754 45.44061279296875),node,,,,,
28,0.0,9.205672,442138046,1633680538,45.477074,"{""contact:phone"":""+39 02 29406054""}",5,Milano,,11,,20124,Viale Tunisia,,Arcobaleno Film Center,,,+39 02 29406054,,http://cinenauta.it/arcobaleno/,cinema,,,,,,,,,POINT (9.205672264099121 45.477073669433594),node,,,,,
29,0.0,9.19553,442572432,1489237219,45.456684,"{""wikidata"":""Q1130908""}",5,Milano,IT,63,,20121,Corso di Porta Romana,,Teatro Carcano,,,,,,theatre,,,,,,,,it:Teatro Carcano,POINT (9.19552993774414 45.45668411254883),node,,,,,
30,0.0,9.165996,442586656,1327096706,45.46907,,2,Milano,IT,16,,20145,Via Lodovico Ariosto,,Ariosto,,,,,,cinema,,,,,,,,,POINT (9.165995597839355 45.46907043457031),node,,,,,
31,0.0,9.191911,442587179,1408827896,45.46639,,2,,,,,,,,Auditorium San Fedele,,,,,,theatre,,,,,,,,,POINT (9.191910743713379 45.46638870239258),node,,,,,
32,0.0,9.185772,442587403,1638179005,45.46216,"{""facebook"":""https://www.facebook.com/cinemacentralemilano"",""instagram"":""https://www.instagram.com/cinemacentralemilano/"",""screen"":""2"",""toilets"":""yes"",""wikidata"":""Q37158362""}",8,Milano,,"30,32",,20123,Via Torino,mail@multisalacentrale.it,Cinema Centrale,,,+3902874826,,https://www.multisalacentrale.it/,cinema,,,,,,,1907,,POINT (9.185771942138672 45.462158203125),node,,,,,
33,0.0,9.207937,442587550,1327682821,45.46164,,2,Milano,,84,,,Viale Monte Nero,,Colosseo,,,,,,cinema,,,,,,,,,POINT (9.207937240600586 45.461639404296875),node,,,,,
34,0.0,9.182521,442588357,1350858419,45.460846,"{""screen"":""4""}",2,,,,,,,,Eliseo,,,,,,cinema,,,,,,,,,POINT (9.182520866394043 45.460845947265625),node,,,,,
35,0.0,9.175725,442590118,1247755612,45.461563,,1,,,,,,,,Gnomo,,,,,,cinema,,,,,,,,,POINT (9.175724983215332 45.46156311035156),node,,,,,
36,0.0,9.16029,442591065,1570142383,45.452694,,4,,,,,,,,Mexico,,,,,,cinema,,,,,,,,,POINT (9.160289764404297 45.452693939208984),node,,,,,
37,0.0,9.332192,445325846,1358774465,45.526546,"{""wheelchair"":""yes""}",3,,,,,,,,Cine Teatro Agorà,,,,,,cinema,,,,,,,,,POINT (9.332192420959473 45.526546478271484),node,,,,,
38,0.0,8.915385,450562080,1580940718,45.402336,"{""survey:date"":""2020-02-05""}",2,,,,,,,,cinema al corso,,,,,,cinema,,,,,,,,,POINT (8.915385246276855 45.40233612060547),node,,,,,
39,0.0,9.179192,478795478,1625911040,45.446632,"{""wikidata"":""Q16529855""}",5,,,,,,,,Auditorium di Milano,,,,,,theatre,,,,,,,1999,it:Auditorium di Milano,POINT (9.179191589355469 45.446632385253906),node,,,,,
40,0.0,9.161445,540813367,1523652927,45.485233,"{""ref:vatin"":""IT13243640151""}",5,Milano,,47,,20154,Via Piero della Francesca,,Il Gattopardo Café,,Maia & Co s.r.l.,,,http://www.ilgattopardocafe.it/,nightclub,,,,,,,,,POINT (9.161444664001465 45.485233306884766),node,,,,,
41,0.0,9.403168,544451639,1333892544,45.532536,,2,,,,,,,,Cinema Sala Argentia,,,,,,cinema,,,,,,,,,POINT (9.403167724609375 45.532535552978516),node,,,,,
42,0.0,8.982328,554247454,1475066324,45.395035,,2,,,,,,,,,,,,,,theatre,,,,,,,,,POINT (8.982328414916992 45.39503479003906),node,,,,,
43,0.0,9.125195,574335235,1259496488,45.42605,,1,,,,,,,,,,,,,,fountain,,,,,,,,,POINT (9.125194549560547 45.426048278808594),node,,,,,
44,0.0,9.190204,574338924,1306004463,45.468822,,3,,,,,,,,,,,,,,fountain,,,,,,,,,POINT (9.190203666687012 45.46882247924805),node,,,,,
45,0.0,9.188311,577786808,1624272695,45.53754,,5,,,,,,,,Cinema Teatro San Giuseppe,,,,,,theatre,,,,,,,,,POINT (9.188310623168945 45.537540435791016),node,,,,,
46,0.0,9.188347,577786811,1624272684,45.537643,,2,,,,,,,,Cinema Teatro San Giuseppe,,,,,,cinema,,,,,,,,,POINT (9.188346862792969 45.53764343261719),node,,,,,
47,0.0,9.17781,590353684,1273022769,45.3893,,2,,,,,,,,Medusa multisala,,,,,,cinema,,,,,,,,,POINT (9.177809715270996 45.38930130004883),node,,,,,
48,0.0,9.157673,597482668,1521403524,45.447666,,4,,,,,,,,,,,,,,fountain,,,,,,,,,POINT (9.157672882080078 45.44766616821289),node,,,,,
49,0.0,9.285554,603797464,1518882408,45.499443,,3,,,,,,,,Cascina Commenda,,,,,,theatre,,,,,,,,,POINT (9.285553932189941 45.49944305419922),node,,,,,
50,0.0,8.936881,609695758,1262982848,45.505943,,1,,,,,,,,Cinema Oratorio,,,,,,cinema,,,,,,,,,POINT (8.936881065368652 45.505943298339844),node,,,,,
51,0.0,8.8800745,615598181,1263743198,45.47223,,1,,,,,,,,,,,,,,fountain,,,,,,,,,POINT (8.880074501037598 45.47222900390625),node,,,,,
52,0.0,8.87796,618988305,1279984738,45.46468,,2,,,,,,,,,,,,,,fountain,,,,,,,,,POINT (8.877960205078125 45.46467971801758),node,,,,,
53,0.0,8.882427,626352412,1265097789,45.46405,,1,,,,,,,,CinemateatroNuovo,,,,,,theatre,,,,,,,,,POINT (8.882427215576172 45.46405029296875),node,,,,,
54,0.0,9.12815,714322674,1354195210,45.50964,,3,,,,,,,,UCI Cinemas Certosa,,,,,,cinema,,,,,,,,,POINT (9.12814998626709 45.509639739990234),node,,,,,
55,0.0,8.917955,714791302,1491467702,45.59398,"{""wheelchair"":""yes""}",8,Legnano,,,,20025,Galleria INA,,Cinema Teatro Galleria,,,,,http://www.cinemateatrogalleria.it/,cinema,,,,,,,,,POINT (8.91795539855957 45.59397888183594),node,,,,,
56,0.0,8.924028,714795639,1504427417,45.599293,"{""religion"":""christian"",""denomination"":""catholic""}",5,,,,,,,,Oratorio Santissimo Redentore,,,,,,community_centre,,,,,,,,,POINT (8.924028396606445 45.59929275512695),node,,,,,
57,0.0,8.938777,756617458,1578128381,45.58522,"{""religion"":""christian"",""denomination"":""catholic"",""community_centre"":""parish_hall""}",3,,,,,,,,Oratorio,,,,,,community_centre,,,,,,,,,POINT (8.938776969909668 45.58522033691406),node,,,,,
58,0.0,8.918414,868475135,1585492809,45.594196,"{""screen"":""1"",""wheelchair"":""yes""}",5,Legnano,,9,,20025,Corso Magenta,cinemasalaratti@gmail.com,Cinema Ratti,,,0331 546291,,https://cinemasalaratti.wordpress.com/,cinema,,,,,,,,,POINT (8.918414115905762 45.59419631958008),node,,,,,
59,0.0,9.454054,906715849,1390717354,45.545982,"{""wheelchair"":""yes""}",2,,,,,,,,Arcadia,,,,,,cinema,,,,,,,,,POINT (9.45405387878418 45.545982360839844),node,,,,,
60,0.0,9.113505,912755868,1642090283,45.542137,"{""cinema:3D"":""no"",""note"":""Codice fiscale:0130270216;Numero punto vendita:CL000001"",""screen"":""1"",""toilets"":""yes""}",7,Bollate,,5,,20021,Piazza San Martino,,Cineteatro Splendor,,Parrocchia San Martino,+39023502379,,,cinema,,,,,,,,,POINT (9.113505363464355 45.542137145996094),node,,,,,
61,0.0,8.920119,928631510,1285626334,45.46564,,1,,,,,,,,,,,,,,fountain,,,,,,,,,POINT (8.920119285583496 45.465641021728516),node,,,,,
62,0.0,8.8864,942719979,1286643088,45.600605,,1,,,,,,,,Club Mediterranee,,,,,,nightclub,,,,,,,,,POINT (8.88640022277832 45.60060501098633),node,,,,,
63,0.0,8.899633,976077624,1521376278,45.504128,"{""religion"":""christian"",""denomination"":""catholic"",""community_centre"":""parish_hall""}",3,,,,,,,,Oratorio San Luigi,,,,,,community_centre,,,,,,,,,POINT (8.899633407592773 45.504127502441406),node,,,,,
64,0.0,9.19311,982675406,1428617222,45.55452,,6,Cusano Milanino,IT,17 bis,,20095,Viale Luigi Buffoli,aiataumastica@gmail.com,Aia Taumastica - Torre dell’Acquedotto,,Associazione Culturale I Carpentieri di Bell,+39 02 89071170,,www.torredellacquedotto.it,theatre,,,,,,,,,POINT (9.193110466003418 45.55451965332031),node,,,,,
65,0.0,9.140315,995613962,1419108177,45.467007,,2,,,,,,,,Rosetum,,,,,,cinema,,,,,,,,,POINT (9.140315055847168 45.46700668334961),node,,,,,
66,0.0,9.294309,1096896814,1401805872,45.48782,,2,,,,,,,,,,,,,,fountain,,,,,,,,,POINT (9.29430866241455 45.48781967163086),node,,,,,
67,0.0,9.293781,1096929999,1597273645,45.490715,,3,,,,,,,,,,,,,,fountain,,,,,,,,,POINT (9.293781280517578 45.49071502685547),node,,,,,
68,0.0,9.266721,1097728453,1294732352,45.487885,,1,,,,,,,,,,,,,,fountain,,,,,,,,,POINT (9.26672077178955 45.487884521484375),node,,,,,
69,0.0,9.246832,1097822765,1321114036,45.4789,,2,,,,,,,,,,,,,,fountain,,,,,,,,,POINT (9.246831893920898 45.47890090942383),node,,,,,
70,0.0,9.267484,1098715399,1294784570,45.50082,,1,,,,,,,,,,,,,,fountain,,,,,,,,,POINT (9.267483711242676 45.50082015991211),node,,,,,
71,0.0,9.291691,1102949205,1466517516,45.493023,,3,,,,,,,,,,,,,,fountain,,,,,,,,,POINT (9.291690826416016 45.49302291870117),node,,,,,
72,0.0,9.299554,1108916429,1295352825,45.483593,,1,,,,,,,,,,,,,,fountain,,,,,,,,,POINT (9.299553871154785 45.48359298706055),node,,,,,
73,0.0,9.262974,1108925113,1594800889,45.52453,,4,,,,,,,,,,,,,,fountain,,,,,,,,,POINT (9.26297378540039 45.52452850341797),node,,,,,
74,0.0,9.168511,1133055348,1296688557,45.544315,,1,,,,,,,,Associazione Nazionale Combattenti Reduci,,,,,,social_centre,,,,,,survey,,,POINT (9.168511390686035 45.544315338134766),node,,,,,
75,0.0,9.223721,1213063491,1300791671,45.35952,,1,,,,,,,,Auditorium,,Comune di Locate di Triulzi,,,,community_centre,,,,,,,,,POINT (9.22372055053711 45.359519958496094),node,,,,,
76,0.0,9.157116,1296091994,1306068229,45.44834,,1,,,,,,,,,,,,,,fountain,,,,,,,,,POINT (9.157115936279297 45.448341369628906),node,,,,,
77,0.0,9.176891,1359953183,1451120050,45.46847,,2,,,,,,,,,,,,,,fountain,,,,,,,,,POINT (9.176891326904297 45.46847152709961),node,,,,,
78,0.0,9.176786,1364451085,1451120053,45.468548,,2,,,,,,,,,,,,,,fountain,,,,,,,,,POINT (9.176786422729492 45.46854782104492),node,,,,,
79,0.0,9.375151,1400850713,1551112128,45.528618,"{""indoor"":""no"",""alt_name"":""Bookcrossing Bussero"",""artist_name"":""Willow"",""description"":""Vecchia cabina telefonica trasformata in cabina per bookcrossing il 10-02-2019"",""public_bookcase:type"":""phone_box"",""public_bookcase:position"":""sidewal""}",5,,,,,,,,Bibliocabina,24/7,,,,,public_bookcase,,,,,,,,,POINT (9.375150680541992 45.52861785888672),node,,,,,
80,0.0,9.22639,1427961587,1489237300,45.479527,"{""wikidata"":""Q3982031""}",4,Milano,IT,1,,20131,Via Andrea Maria Ampère,info@teatroleonardo.it,Teatro Leonardo da Vinci,,,+39 02 26681166,,http://www.teatroleonardo.it/,theatre,,,,,,,1979,it:Teatro Leonardo da Vinci,POINT (9.22638988494873 45.47952651977539),node,,,,,
81,0.0,9.191053,1430014701,1410283085,45.536533,,3,,,,,,,,,,,,,,fountain,,,,,,,,,POINT (9.19105339050293 45.53653335571289),node,,,,,
82,0.0,9.165334,1474090542,1319109607,45.502296,,3,,,,,,,,,,,,,,fountain,,,,,,,,,POINT (9.16533374786377 45.502296447753906),node,,,,,
83,0.0,9.227638,1479065002,1411677020,45.560337,,2,,,,,,,,,,,,,,fountain,,,,,,,,,POINT (9.227638244628906 45.56033706665039),node,,,,,
84,0.0,9.21831,1505376846,1495708257,45.52959,"{""wheelchair"":""yes""}",3,,,,,,,,Skyline,,,,,https://www.skylinemultiplex.it,cinema,,,,,,,,,POINT (9.218310356140137 45.52959060668945),node,,,,,
85,0.0,8.919732,1539924146,1580940713,45.39868,"{""survey:date"":""2020-02-05""}",2,,,,,,,,,,,,,,fountain,,,,,,,,,POINT (8.919732093811035 45.398681640625),node,,,,,
86,0.0,9.087717,1551151574,1325012200,45.463142,,2,,,,,,,,,,,,,,fountain,,,,,,,,,POINT (9.087717056274414 45.46314239501953),node,,,,,
87,0.0,9.172358,1558406769,1324578069,45.546677,,1,Cormano,IT,3,,20032,Via Gianni Rodari,info@teatrodelburatto.it,Teatro del Buratto,,,+39 02 27002476,,http://www.teatrodelburatto.it/bi.html,theatre,,,,,,,,,POINT (9.172357559204102 45.54667663574219),node,,,,,
88,0.0,9.192575,1563786552,1326037779,45.5566,,2,,,,,,,,,,,,,,fountain,,,,,,,,,POINT (9.192575454711914 45.55659866333008),node,,,,,
89,0.0,9.167273,1601347311,1424040554,45.516838,,2,,,,,,,,,,,,,,fountain,,,,,,,,,POINT (9.167272567749023 45.51683807373047),node,,,,,
90,0.0,9.166827,1601347335,1327249683,45.51716,,1,,,,,,,,,,,,,,fountain,,,,,,,,,POINT (9.166827201843262 45.51715850830078),node,,,,,
91,0.0,9.141211,1627458991,1328910430,45.515823,,1,,,,,,,,,,,,,,fountain,,,,,,,,,POINT (9.141210556030273 45.51582336425781),node,,,,,
92,0.0,9.38758,1641747493,1556844743,45.54437,,3,,,,,,,,Fontana Prinetti,,,,,,fountain,,,,,,,,,POINT (9.387579917907715 45.544368743896484),node,,,,,
93,0.0,9.399881,1662870885,1331059762,45.417473,,1,,,,,,,,,,,,,,fountain,,,,,,,,,POINT (9.399881362915039 45.41747283935547),node,,,,,
94,0.0,8.778009,1695921914,1491136011,45.54838,,2,,,,,,,,Auditorium Paccagnini,,,,,http://www.auditoriumapaccagnini.it/,theatre,,,,,,,,,POINT (8.778009414672852 45.54838180541992),node,,,,,
95,0.0,9.246521,1709625517,1334046884,45.499805,,2,,,,,,,,,,,,,,fountain,,,,,,,,,POINT (9.24652099609375 45.49980545043945),node,,,,,
96,0.0,9.2098055,1714332504,1507722829,45.479435,"{""fixme"":""Position estimated"",""wikidata"":""Q3982292""}",6,Milano,IT,33,,20124,Corso Buenos Aires,,Teatro Elfo Puccini,,,+39 02 00660606,,http://www.elfo.org/,theatre,,,,,,,1972,it:Teatro dell'Elfo,POINT (9.209805488586426 45.479434967041016),node,,,,,
97,0.0,9.415692,1732841110,1371981880,45.53606,,2,,,,,,,,,,,,,,fountain,,,,,,,,,POINT (9.415692329406738 45.53606033325195),node,,,,,
98,0.0,9.109408,1741349223,1538313819,45.432476,,4,,,,,,,,,,,,,,fountain,,,,,,,,,POINT (9.109408378601074 45.43247604370117),node,,,,,
99,0.0,9.196008,1742696869,1336298370,45.571507,,1,,,,,,,,,,,,,,fountain,,,,,,,,,POINT (9.19600772857666 45.57150650024414),node,,,,,
100,0.0,9.522449,1792401138,1339973156,45.525555,,2,,,,,,,,,,,,,,fountain,,,,,,,,,POINT (9.522448539733887 45.52555465698242),node,,,,,
101,0.0,9.081686,1793520387,1340047249,45.616707,,1,,,,,,,,,,,,,,fountain,,,,,,,,,POINT (9.081686019897461 45.61670684814453),node,,,,,
102,0.0,9.084071,1802111650,1358019536,45.43238,,3,,,,,,,,"ARCI ""Cesare Terranova""",,,,,,community_centre,,,,,,,,,POINT (9.084071159362793 45.43238067626953),node,,,,,
103,0.0,9.084319,1802111655,1496046985,45.432392,,4,,,,,,,,"Circolo dei Sardi ""Domo Nostra""",,,,,,community_centre,,,,,,,,,POINT (9.084319114685059 45.43239212036133),node,,,,,
104,0.0,9.318321,1804023931,1340809203,45.52668,,1,,,,,,,,,,,,,,fountain,,,,,,,,,POINT (9.318321228027344 45.52667999267578),node,,,,,
105,0.0,9.19711,1855779383,1594913413,45.46649,"{""wikidata"":""Q3982080"",""wheelchair"":""limited""}",6,,,,,,,,Teatro Nuovo,,,,,https://www.teatronuovo.it/,theatre,,,,,,,1938,it:Teatro Nuovo (Milano),POINT (9.197110176086426 45.46649169921875),node,,,,,
106,0.0,9.190981,1901845033,1346916431,45.46165,,1,,,,,,,,Top Down Nightclub,,,,,,nightclub,,,,,,,,,POINT (9.190980911254883 45.46165084838867),node,,,,,
107,0.0,9.370381,1902124773,1472891078,45.537643,"{""wheelchair"":""yes""}",2,,,,,,,,,,,,,,theatre,,,,,,,,,POINT (9.370381355285645 45.53764343261719),node,,,,,
108,0.0,9.247116,1919738049,1347952751,45.47897,,1,,,,,,,,,,,,,,fountain,,,,,,,,,POINT (9.247116088867188 45.47896957397461),node,,,,,
109,0.0,9.520447,1928086991,1348353685,45.52362,,1,,,,,,,,,,,,,,theatre,,,,,,,,,POINT (9.52044677734375 45.52362060546875),node,,,,,
110,0.0,8.91007,1931042087,1348515029,45.425777,,1,,,,,,,,,,,,,,fountain,,,,,,,,,POINT (8.910070419311523 45.425777435302734),node,,,,,
111,0.0,9.158775,1966853827,1633092455,45.359097,"{""lit"":""yes""}",3,,,,,,,,,,,,,,fountain,,,,,,,,,POINT (9.158775329589844 45.35909652709961),node,,,,,
112,0.0,9.201031,1977225057,1350858418,45.459435,"{""description"":""Cinema estivo""}",1,,,,,,,,Arena Umanitaria,,,,,,cinema,,,,,,,,,POINT (9.201030731201172 45.459434509277344),node,,,,,
113,0.0,9.203966,1977225059,1489237323,45.475372,"{""wikidata"":""Q3966087"",""wheelchair"":""yes""}",3,Milano,IT,2,,20124,Viale Vittorio Veneto,,Spazio Oberdan,,Provincia di Milano,+39 02 77406300,,http://www.provincia.milano.it/cultura/spazi/spaziooberdan/index.html,cinema,,,,,,,,it:Spazio Oberdan,POINT (9.20396614074707 45.475372314453125),node,,,,,
114,0.0,8.72207,2001400140,1485768183,45.54911,,2,,,,,,,,,,,,,,fountain,,,,,,,,,POINT (8.72206974029541 45.549110412597656),node,,,,,
115,0.0,9.391778,2009662532,1532174657,45.45589,,3,,,,,,,,,,,,,,fountain,,,,,,,,,POINT (9.391777992248535 45.45589065551758),node,,,,,
116,0.0,9.192001,2061403098,1642277444,45.476173,"{""artist_name"":""Giannino Castiglioni"",""historic"":""monument"",""tourism"":""artwork"",""wikidata"":""Q55752855""}",3,,,,,,,,Fontana di San Francesco,,,,,,fountain,,,,,,,,,POINT (9.192001342773438 45.476173400878906),node,,,,,
117,0.0,9.206381,2065222330,1489237325,45.454144,"{""comment"":""Salone Pier Lombardo"",""wikidata"":""Q3981988""}",3,,,,,,,,Teatro Franco Parenti,,,,,,theatre,,,,,,,,it:Teatro Franco Parenti,POINT (9.206380844116211 45.45414352416992),node,,,,,
118,0.0,9.386159,2085786338,1356702193,45.4539,,1,,,,,,,,Centro sociale anziani,,Comune di Settala,,,,community_centre,,,,,,,,,POINT (9.38615894317627 45.45389938354492),node,,,,,
119,0.0,9.183112,2093146840,1460259738,45.4389,,2,,,52,,,Via Giovanni Pezzotti,,Rocket,,,,,,nightclub,,,,,,,,,POINT (9.183112144470215 45.438899993896484),node,,,,,
120,0.0,9.406317,2144758254,1446903375,45.532135,,2,,,,,,,,Fontana di San Francesco,,,,,,fountain,,,,,,,,,POINT (9.406316757202148 45.532135009765625),node,,,,,
121,0.0,9.501099,2146024522,1360278977,45.5761,,1,,,,,,,,,,,,,,fountain,,,,,,,,,POINT (9.5010986328125 45.57609939575195),node,,,,,
122,0.0,9.494468,2146048006,1360282498,45.591793,,1,,,,,,,,,,,,,,fountain,,,,,,,,,POINT (9.494467735290527 45.591793060302734),node,,,,,
123,0.0,9.231159,2150139029,1486157316,45.43304,"{""phone_1"":""+39 339 409 0542""}",2,,,36,,20139,Via Fabio Massimo,,Karma,,,+39 346 383 1499,,http://www.karmamilano.it,nightclub,,,,,,,,,POINT (9.231159210205078 45.433040618896484),node,,,,,
124,0.0,9.403682,2171704138,1362574793,45.53618,,2,,,,,,,,,,,,,,fountain,,,,,,,,,POINT (9.403681755065918 45.53617858886719),node,,,,,
125,0.0,9.219901,2214966885,1609606782,45.49597,"{""description"":""sala giochi, sala slot""}",2,Milano,IT,82,,,Viale Monza,,Las Vegas,,,,,,gambling,,,,,,,,,POINT (9.219901084899902 45.4959716796875),node,,,,,
126,0.0,9.170947,2223277704,1364246229,45.4512,"{""alt_name"":""Sessantacinque metri quadri""}",1,,,,,,,,65 mq,,,,,,nightclub,,,,,,,,,POINT (9.170947074890137 45.45119857788086),node,,,,,
127,0.0,9.221577,2226451125,1550016442,45.44714,,2,Milano,,39,,20137,Via Giovanni Cadolini,,Goganga,,,,,,nightclub,,,,,,,,,POINT (9.221576690673828 45.447139739990234),node,,,,,
128,0.0,9.181947,2226485067,1461400657,45.494415,,3,Milano,IT,21,,20159,Via Valtellina,info@clubhaus80s.com,Club Haus 80's,,,,,www.clubhaus80s.com,nightclub,,,,,,,,,POINT (9.181946754455566 45.494415283203125),node,,,,,
129,0.0,9.178127,2226705942,1643721687,45.451458,,2,,,,,,,,Roxanne,,,,,,nightclub,,,,,,,,,POINT (9.17812728881836 45.45145797729492),node,,,,,
130,0.0,9.186478,2272639838,1395089568,45.48241,,2,Milano,IT,13,,20154,Via Alessio di Tocqueville,libo@tocqueville13.it,Tocqueville,,,+39 335 6819631,,http://www.tocqueville13.it/,nightclub,,,,,,,,,POINT (9.186477661132812 45.4824104309082),node,,,,,
131,0.0,9.186808,2272639841,1553687856,45.48242,"{""contact:phone"":""+39 02 89281711""}",5,Milano,IT,11,,20154,Via Alessio di Tocqueville,,11,,Unidici srl,,,https://www.11milano.it/,nightclub,,,,,,,,,POINT (9.186807632446289 45.482421875),node,,,,,
132,0.0,9.40454,2275269490,1366550722,45.531395,,1,,,,,,,,,,,,,,fountain,,,,,,,,,POINT (9.404540061950684 45.531394958496094),node,,,,,
133,0.0,9.188323,2311261801,1480187180,45.454357,,2,,,,,,,,,,,,,,fountain,no,,,,,,,,POINT (9.188323020935059 45.4543571472168),node,,,,,
134,0.0,9.187669,2330517547,1370261781,45.50894,,1,,,,,,,,,,,,,,fountain,,,,,,,,,POINT (9.187668800354004 45.508941650390625),node,,,,,
135,0.0,9.188137,2330517549,1370261781,45.50989,,1,,,,,,,,,,,,,,fountain,,,,,,,,,POINT (9.18813705444336 45.509891510009766),node,,,,,
136,0.0,9.22551,2345613403,1378409697,45.486465,,3,,,24,,,Via Niccolò Jommelli,,Spazio Tadini,,,,,http://www.spaziotadini.it/,theatre,,,,,,,,,POINT (9.225509643554688 45.48646545410156),node,,,,,
137,0.0,9.195356,2420779234,1553687898,45.466305,"{""fixme"":""Position estimated"",""wikidata"":""Q37158297""}",5,,,,,,,,Arlecchino,,,,,https://www.circuitocinema.com/milano/arlecchino.html,cinema,,,,,,,,,POINT (9.195356369018555 45.466304779052734),node,,,,,
138,0.0,9.149607,2443995030,1481565756,45.50009,,2,,,,,,,,,,,,,,fountain,,,,,,,,,POINT (9.149606704711914 45.500091552734375),node,,,,,
139,0.0,9.519794,2451245382,1378701373,45.526333,"{""access"":""private""}",1,,,,,,,,,,,,,,fountain,,,,,,,,,POINT (9.519794464111328 45.52633285522461),node,,,,,
140,0.0,9.185861,2479386540,1568381845,45.48679,"{""wheelchair"":""no""}",2,Milano,,16,,20159,Via Pastrengo,,Teatro Verdi,,,,,http://www.teatrodelburatto.it/,theatre,,,,,,,,,POINT (9.185860633850098 45.48678970336914),node,,,,,
141,0.0,9.187741,2491568216,1638093709,45.492172,"{""contact:facebook"":""https://www.facebook.com/teatro.fontana"",""contact:instagram"":""teatrofontana"",""name:en"":""Fontana Theater"",""name:it"":""Teatro Fontana""}",4,Milano,,21,,20159,Via Gian Antonio Boltraffio,fontana.teatro@elsinor.net,Teatro Fontana,,,+39 02 69015733,,http://www.teatrosalafontana.it/home.html,theatre,,,,,,,,,POINT (9.18774127960205 45.49217224121094),node,,,,,
142,0.0,9.18489,2524604847,1383939137,45.485023,,1,Milano,,10,,20154,Via Giuseppe Ferrari,,Fashion Rio Disco Village,,,,,,nightclub,,,,,,,,,POINT (9.184889793395996 45.485023498535156),node,,,,,
143,0.0,9.163431,2525339105,1553433182,45.555744,"{""indoor"":""yes""}",2,Paderno Dugnano,IT,4,,20037,Via Brasile,,"Cinema Multisala ""Le Giraffe""",,,,,https://www.legiraffe.it/il-multisala.html,cinema,,,,,,,,,POINT (9.163431167602539 45.55574417114258),node,,,,,
144,0.0,9.246566,2559973237,1385912488,45.452866,,1,,,,,,,,,,,,,,fountain,,,,,,,,,POINT (9.246565818786621 45.45286560058594),node,,,,,
145,0.0,9.186811,2573561770,1593660031,45.484833,,3,,,,,,,,Start,,,,,,gambling,,,,,,,,,POINT (9.186811447143555 45.484832763671875),node,,,,,
146,0.0,9.198295,2586047555,1396021737,45.535828,,2,,,,,,,,,,,,,,fountain,,,,,,,,,POINT (9.198294639587402 45.53582763671875),node,,,,,
147,0.0,9.03967,2597725316,1631816465,45.528564,,4,,,,,,,,Fontana Visconti,,,,,,fountain,,,,,,,,,POINT (9.03966999053955 45.528564453125),node,,,,,
148,0.0,9.197392,2663588679,1391971965,45.466408,,1,,,,,,,,,,,,,,fountain,,,,,,,,,POINT (9.197392463684082 45.466407775878906),node,,,,,
149,0.0,9.202234,2685391072,1489827202,45.463375,,2,Milano,IT,16,,20122,Via Filippo Corridoni,,Centro Congressi Provincia di Milano,,,,,,conference_centre,,,,,,,,,POINT (9.202234268188477 45.463375091552734),node,,,,,
150,0.0,9.227838,2703110259,1519832192,45.473873,,2,,,,,,,,,,,,,,fountain,,,,,,,,,POINT (9.227837562561035 45.473873138427734),node,,,,,
151,0.0,9.18885,2719628296,1553432876,45.48953,"{""music"":""jazz"",""smoking"":""no"",""wheelchair"":""yes"",""contact:skype"":""Bluenotemilanoboxoffice1"",""contact:twitter"":""Bluenotemilano"",""contact:facebook"":""http://www.facebook.com/bluenotemilano""}",6,Milano,IT,37,,20159,Via Pietro Borsieri,,Blue Note,,,+39 02 69016888,,https://www.bluenotemilano.com/,nightclub,,,,,,,,,POINT (9.188850402832031 45.48952865600586),node,,,,,
152,0.0,9.18714,2724084294,1445625368,45.481384,,2,,,,,,,,,,,,,,fountain,,,,,,,,,POINT (9.187140464782715 45.48138427734375),node,,,,,
153,0.0,9.187321,2724084320,1445625368,45.482006,,2,,,,,,,,,,,,,,fountain,,,,,,,,,POINT (9.187320709228516 45.48200607299805),node,,,,,
154,0.0,9.187205,2724178325,1553687691,45.482594,"{""wheelchair"":""no""}",5,Milano,IT,15,,20154,Corso Como,,Hollywood,,,,,https://www.discotecahollywood.com/,nightclub,,,,,,,,,POINT (9.18720531463623 45.48259353637695),node,,,,,
155,0.0,9.187188,2724178332,1484063029,45.48252,"{""ref:vatin"":""IT07066350963""}",3,Milano,IT,15,,20154,Corso Como,info@loolapaloosa.com,LoolaPaloosa,,,+39 02 6555693,,http://www.loolapaloosa.com/,nightclub,,,,,,,,,POINT (9.187188148498535 45.482521057128906),node,,,,,
156,0.0,9.373439,2762141039,1589917239,45.5373,"{""wheelchair"":""limited"",""official_name"":""Aula Studio Comune di Bussero"",""community_centre"":""meeting_room"",""internet_access:fee"":""no"",""community_centre:for"":""student""}",4,Bussero,,1,Aula Studio,20041,Via Gotifredo da Bussero,,Aula Studio,24/7,Comune di Bussero,,,,community_centre,,,,yes,,,,,POINT (9.373438835144043 45.53730010986328),node,,,,,
157,0.0,9.37361,2762152018,1589917239,45.53755,"{""alt_name"":""Bussero"",""short_name"":""Auditorium Biblioteca Comune di Bussero"",""wheelchair"":""yes"",""internet_access:fee"":""no""}",2,Bussero,,1,,20041,Via Gotifredo da Bussero,,Auditorium Biblioteca,,Comune di Bussero,,,,theatre,,,,yes,,,,,POINT (9.37360954284668 45.53755187988281),node,,,,,
158,0.0,8.918499,2808123329,1640602157,45.595936,,2,,,,,,,,Fontana Susumu Shingu,,,,,,fountain,,,,,,,,,POINT (8.918498992919922 45.5959358215332),node,,,,,
159,0.0,9.167399,2915933053,1402752006,45.49216,,1,,,,,,,,,,,,,,fountain,,,,,,,,,POINT (9.167399406433105 45.49216079711914),node,,,,,
160,0.0,9.148952,2923033097,1403163650,45.43244,,1,,,,,,,,,,,,,,theatre,,,,,,,,,POINT (9.148951530456543 45.43244171142578),node,,,,,
161,0.0,9.158355,2923310071,1403177575,45.458508,,1,,,,,,,,,,,,,,fountain,,,,,,,,,POINT (9.158354759216309 45.4585075378418),node,,,,,
162,0.0,9.158312,2923310076,1403177575,45.45858,,1,,,,,,,,,,,,,,fountain,,,,,,,,,POINT (9.15831184387207 45.458580017089844),node,,,,,
163,0.0,8.928265,2927751833,1587799341,45.613083,"{""smoking"":""no"",""ref:vatin"":""IT13186890151"",""wheelchair"":""yes"",""contact:yelp"":""http://www.yelp.it/biz/land-of-live-legnano"",""contact:email"":""info@landoflive.it"",""contact:phone"":""+39 349 2346324"",""contact:flickr"":""http://www.flickr.com/photos/79392729@N06/"",""contact:twitter"":""https://twitter.com/LandOfLive/"",""contact:website"":""http://www.landoflive.it"",""contact:youtube"":""http://www.youtube.com/user/Landoflive"",""contact:facebook"":""https://www.facebook.com/pages/Land-of-Live-Official/248262701890617""}",3,Legnano,,23,,20025,Via Maestri del Lavoro,,Land of Live,Fr-Sa 23:00-04:00,,,,,nightclub,,,,,,,,,POINT (8.928264617919922 45.61308288574219),node,,,,,
164,0.0,8.976021,2934037553,1403776896,45.488716,,1,,,,,,,,,,,,,,fountain,,,,,,,,,POINT (8.976020812988281 45.48871612548828),node,,,,,
165,0.0,8.973547,2934037578,1403776896,45.487617,,1,,,,,,,,,,,,,,fountain,,,,,,,,,POINT (8.973546981811523 45.48761749267578),node,,,,,
166,0.0,9.19187,2937821817,1626772020,45.461514,"{""alt_name"":""Teatro lirico Giorgio Gaber"",""old_name"":""Teatro della Cannobiana"",""wikidata"":""Q3982039""}",3,Milano,IT,14,,,Via Larga,,Teatro Lirico Giorgio Gaber,,,,,,theatre,,,,,,,,it:Teatro Lirico di Milano,POINT (9.191869735717773 45.46151351928711),node,,,,,
167,0.0,9.185008,2947882515,1543530999,45.482616,,2,Milano,IT,11,,20154,Via privata Nino Bonnet,,Exotica,,,,,,nightclub,,,,,,,,,POINT (9.18500804901123 45.48261642456055),node,,,,,
168,0.0,9.457403,2949314500,1404569107,45.567154,,1,,,,,,,,,,,,,,fountain,,,,,,,,,POINT (9.457403182983398 45.56715393066406),node,,,,,
169,0.0,8.9189415,2964252157,1544274924,45.469242,"{""studio"":""radio""}",3,,,,,,,,Radio Corbetta,,,,,,studio,,,,,,,,,POINT (8.918941497802734 45.469242095947266),node,,,,,
170,0.0,9.192994,2993628023,1573257372,45.470875,"{""wheelchair"":""yes""}",6,Milano,IT,31,,20121,Via Alessandro Manzoni,,Armani Privè,,,,,http://www.milan.armanihotels.com,nightclub,,,,,,,,,POINT (9.192994117736816 45.47087478637695),node,,,,,
171,0.0,9.067933,3039763805,1629725987,45.531815,,3,,,,,,,,,,,,,,fountain,,,,,,,,,POINT (9.067933082580566 45.53181457519531),node,,,,,
172,0.0,9.18955,3078973270,1553687842,45.48088,,3,Milano,IT,14,,20124,Viale Monte Grappa,office@vibemilano.com,Vibe Room,,,+39 333 2453962,,https://www.vibemilano.it/,nightclub,,,,,,,,,POINT (9.189550399780273 45.48088073730469),node,,,,,
173,0.0,9.201609,3097145046,1534513764,45.471416,,2,,,,,,,,Circolo del Commercio,,,,,,conference_centre,,,,,,,,,POINT (9.201608657836914 45.47141647338867),node,,,,,
174,0.0,9.137758,3097574889,1428509713,45.497513,,2,,,28,,,Via Giovanni da Udine,,Madison Music Hall,,,,,http://www.newmadison.it/,nightclub,,,,,,,,,POINT (9.137758255004883 45.49751281738281),node,,,,,
175,0.0,9.283214,3109298956,1412341607,45.398495,,1,,,,,,,,,,,,,,fountain,,,,,,,,,POINT (9.28321361541748 45.398494720458984),node,,,,,
176,0.0,9.195956,3147227479,1414151163,45.486042,,1,Milano,IT,1,,,Piazza Città di Lombardia,,Auditorium Giovanni Testori,,,,,,theatre,,,,,,,,,POINT (9.195956230163574 45.48604202270508),node,,,,,
177,0.0,9.18779,3307148582,1641992569,45.480057,"{""screen"":""11"",""wheelchair"":""yes"",""wikidata"":""Q37158169""}",7,Milano,IT,8,,20121,Piazza Venticinque Aprile,,Anteo Spazio Cinema,,,+39 02 6597732,,https://www.spaziocinema.info/,cinema,,,,,,,,,POINT (9.187789916992188 45.48005676269531),node,,,,,
178,0.0,9.221972,3316533500,1490776077,45.447933,"{""description"":""Fablab e makerspace, Siamo un network di differenti professionalit\u00E0, eterogeneo e multidisciplinare.""}",5,Milano,,70,,20137,Via Tertulliano,,opendot s.r.l.,,,+39 02 36519890,,http://www.opendotlab.it,community_centre,,,,,,http://www.opendotlab.it,,,POINT (9.221972465515137 45.447933197021484),node,,,,,
179,0.0,9.234263,3331491049,1423125209,45.53474,,1,,,,,,,,,,,,,,fountain,,,,,,,,,POINT (9.23426342010498 45.53474044799805),node,,,,,
180,0.0,9.028199,3347475041,1423816961,45.533623,,1,,,,,,,,,,,,,,fountain,,,,,,,,,POINT (9.028199195861816 45.53362274169922),node,,,,,
181,0.0,9.231967,3442415537,1428390816,45.522655,,1,,,,,,,,,,,,,,fountain,,,,,,,,,POINT (9.231966972351074 45.52265548706055),node,,,,,
182,0.0,9.189159,3448550163,1553687760,45.47841,"{""fax"":""+39 02 29003497""}",2,Milano,IT,40,,20121,Via San Marco,museodeinavigli@mclink.it,Museo dei Navigli,,,+39 02 29001068,,https://www.museodeinavigli.com/,conference_centre,,,,,,,,,POINT (9.189159393310547 45.47840881347656),node,,,,,
183,0.0,9.106069,3458303239,1429133450,45.516663,,1,,,,,,,,,,,,,,theatre,,,,,,,,,POINT (9.10606861114502 45.51666259765625),node,,,,,
184,0.0,9.189972,3473358170,1568380586,45.486546,"{""wheelchair"":""yes""}",5,Milano,IT,3,,,Via Federico Confalonieri,,Pianoterra Lab,,,,,http://pianoterralab.org,community_centre,,,,,,,,,POINT (9.189971923828125 45.48654556274414),node,,,,,
185,0.0,9.110157,3600695273,1434556156,45.515995,,1,,,,,,,,,,,,,,fountain,,,,,,,,,POINT (9.110157012939453 45.515995025634766),node,,,,,
186,0.0,9.202069,3652841909,1640256980,45.454662,,3,,,,,,,,Teatro della Contraddizione,,,,,http://www.teatrodellacontraddizione.it/,theatre,,,,,,,,,POINT (9.202069282531738 45.45466232299805),node,,,,,
187,0.0,8.907694,3657607641,1484223276,45.454193,"{""club"":""sport"",""sport"":""running"",""leisure"":""club""}",3,,,,,,,,Gruppo Podistico Corbettese,,,,,,community_centre,,,,,,,,,POINT (8.907693862915039 45.454193115234375),node,,,,,
188,0.0,8.900423,3703453957,1439924145,45.46924,,1,,,,,,,,Dream Island,,,,,,gambling,,,,,,,,,POINT (8.900423049926758 45.46923828125),node,,,,,
189,0.0,8.892719,3703702772,1439935413,45.46732,,1,,,,,,,,Re-play,,,,,,gambling,,,,,,,,,POINT (8.892719268798828 45.46731948852539),node,,,,,
190,0.0,9.2254,3704616827,1439988417,45.46589,,1,,,,,,,,,,,,,,fountain,,,,,,,,,POINT (9.2253999710083 45.46588897705078),node,,,,,
191,0.0,9.2201605,3719659369,1440835200,45.50244,,1,Milano,IT,11/A,,20125,Via Rovigno,info@teatrosdomingo.org,Teatro San Domingo,,,+39 02 2619100,,http://www.teatrosdomingo.org/,theatre,,,,,,,,,POINT (9.220160484313965 45.50244140625),node,,,,,
192,0.0,9.113083,3724434385,1441099023,45.46064,,1,,,,,,,,,,,,,,fountain,,,,,,,,,POINT (9.113082885742188 45.46063995361328),node,,,,,
193,0.0,9.155611,3792487443,1642276510,45.474358,"{""wikidata"":""Q95998628""}",5,Milano,,,,20145,Piazzale Giulio Cesare,,Fontana delle Quattro Stagioni,,,,,,fountain,,,,,,,,,POINT (9.155611038208008 45.47435760498047),node,,,,,
194,0.0,9.176467,3840440921,1480846294,45.46569,,2,Milano,IT,3,,20123,Via Terraggio,,Nuovo Cinema Orchidea,,,,,,cinema,,,,,,,,,POINT (9.176466941833496 45.46569061279297),node,,,,,
195,0.0,9.193667,3877993033,1449312457,45.468548,,1,Milano,IT,11/A,,20121,Via Bigli,info@spaziobigli.com,Spazio Bigli,,,+39 02 76022112,,http://www.spaziobigli.com/,conference_centre,,,,,,,,,POINT (9.1936674118042 45.46854782104492),node,,,,,
196,0.0,9.278131,3890093799,1553433022,45.49547,,2,,,,,,,,CSA Baraonda,,,,,https://csa-baraonda.noblogs.org/,community_centre,,,,,,,,,POINT (9.278130531311035 45.49546813964844),node,,,,,
197,0.0,9.278332,3927869378,1596894571,45.49561,,4,Segrate,,13,,20054,Via Antonio Pacinotti,,GAS Segrate,,,,,,community_centre,,,,,,,,,POINT (9.278331756591797 45.495609283447266),node,,,,,
198,0.0,9.279532,3931402064,1452122537,45.518833,,1,,,,,,,,,,,,,,fountain,,,,,,,,,POINT (9.279532432556152 45.51883316040039),node,,,,,
199,0.0,9.237282,3949541117,1452936309,45.534824,,1,,,,,,,,,,,,,,fountain,,,,,,,,,POINT (9.237281799316406 45.53482437133789),node,,,,,
200,0.0,9.467554,3951896995,1453050533,45.57291,,1,,,,,,,,,,,,,,fountain,,,,,,,,,POINT (9.467554092407227 45.57291030883789),node,,,,,
201,0.0,9.126171,3958466402,1453397282,45.41343,,1,,,,,,,,,,,,,,fountain,,,,,,,,,POINT (9.126171112060547 45.413429260253906),node,,,,,
202,0.0,9.127266,3958767136,1453413934,45.409126,,1,,,,,,,,,,,,,,fountain,,,,,,,,,POINT (9.127265930175781 45.40912628173828),node,,,,,
203,0.0,9.134571,3968722140,1453824938,45.405426,,1,,,,,,,,,,,,,,fountain,,,,,,,,,POINT (9.134571075439453 45.405426025390625),node,,,,,
204,0.0,9.126337,3968722143,1585548725,45.412167,,2,,,,,,,,,,,,,,fountain,,,,,,,,,POINT (9.126337051391602 45.412166595458984),node,,,,,
205,0.0,9.132424,3974063379,1453997763,45.409756,,1,,,,,,,,,,,,,,fountain,,,,,,,,,POINT (9.132424354553223 45.40975570678711),node,,,,,
206,0.0,9.102916,4016348270,1455972081,45.41667,,1,,,,,,,,,,,,,,fountain,,,,,,,,,POINT (9.10291576385498 45.41667175292969),node,,,,,
207,0.0,9.140061,4031008163,1480192401,45.51854,"{""description"":""Punto Luce di Milano-Quarto Oggiaro, Spazio mamme Mitades Save the children, Fuoriclasse Quarto Oggiaro, BEST (Bisogni Educativi Speciali Territoriali) Quarto Oggiaro, Sportello psicologico Semi di Comunit\u00E0""}",3,Milano,,,,20157,Piazzetta Capuana,,Spazio Agorà,,"Comune di Milano, Save the children, ACLI, Mitades, Civitas, ARCI",+39 02 3570343,,https://spazioagoramilano.wordpress.com/,community_centre,,,,,,,,,POINT (9.140061378479004 45.51853942871094),node,,,,,
208,0.0,9.121159,4033274930,1456764080,45.418747,,1,,,,,,,,Centro diurno integrato Servizi Sociali,,,,,,community_centre,,,,,,,,,POINT (9.121158599853516 45.41874694824219),node,,,,,
209,0.0,9.108076,4035222312,1456858074,45.42214,,1,,,,,,,,,,,,,,fountain,,,,,,,,,POINT (9.108076095581055 45.42213821411133),node,,,,,
210,0.0,9.108627,4035222320,1594463062,45.420944,,2,Buccinasco,,13/A,,,Via Vittorio Emanuele Secondo,,Centro Anziani Romano Banco,,,,,,community_centre,,,,,,,,,POINT (9.108627319335938 45.42094421386719),node,,,,,
211,0.0,9.250837,4040562187,1553687648,45.55552,,2,Cinisello Balsamo,IT,15,,20092,Vicolo Valtellina,,Las Vegas,Mo-Su 10:00-22:00,,+39 02 6126863,,https://www.lasvegasbyplaypark.com/,gambling,,,,,,,,,POINT (9.250837326049805 45.555519104003906),node,,,,,
212,0.0,9.205534,4041811953,1465936658,45.48926,,3,Milano,IT,1,,20125,Via Giovanni Schiaparelli,,Sauna Metro club Milano Centrale,Mo-Su 12:00-01:30,,+39 02 66719089,,www.metroclubmilano.it,nightclub,,,,,,,,,POINT (9.205533981323242 45.489261627197266),node,,,,,
213,0.0,9.202595,4041812174,1484237082,45.48765,,2,Milano,IT,41,,20124,Via Fabio Filzi,,La Tour,,,,,,nightclub,,,,,,,,,POINT (9.202594757080078 45.48765182495117),node,,,,,
214,0.0,9.248005,4056006505,1457771791,45.47568,,1,,,,,,,,,,,,,,theatre,,,,,,,,,POINT (9.248004913330078 45.47568130493164),node,,,,,
215,0.0,9.292118,4073429754,1458656156,45.489773,,1,,,,,,,,,,,,,,fountain,,,,,,,,,POINT (9.292118072509766 45.48977279663086),node,,,,,
216,0.0,9.177548,4073762539,1458669551,45.414864,,1,Milano,,75,,,Via Selvanesco,,Teatro PIM OFF,,Associazione Culturale PiM Spazio Scenico,,,http://www.pimoff.it/,theatre,,,,,,,,,POINT (9.1775484085083 45.41486358642578),node,,,,,
217,0.0,9.14028,4075276397,1461231522,45.518677,"{""description"":""Distaccamento dello Spazio Agor\u00E0\n""}",2,,,,,,,,Punto Luce,,,,,,community_centre,,,,,,,,,POINT (9.140279769897461 45.5186767578125),node,,,,,
218,0.0,9.037495,4108864015,1639322595,45.524902,,3,,,,,,,,,,,,,,fountain,,,,,,,,,POINT (9.037494659423828 45.52490234375),node,,,,,
219,0.0,9.040246,4108864016,1503755645,45.52907,,2,,,,,,,,,,,,,,fountain,,,,,,,,,POINT (9.04024600982666 45.52907180786133),node,,,,,
220,0.0,9.046067,4108864554,1641840974,45.5292,,4,,,,,,,,Fontana Pasqué,,,,,,fountain,,,,,,,,,POINT (9.046067237854004 45.52920150756836),node,,,,,
221,0.0,9.131337,4118979549,1460553468,45.40509,,1,,,,,,,,,,,,,,fountain,,,,,,,,,POINT (9.13133716583252 45.40509033203125),node,,,,,
222,0.0,9.190435,4170005103,1462551128,45.46235,,1,Milano,IT,3,,20122,Piazza Armando Diaz,info@portadoro.com,Porta d'Oro,,,+39 02 86998972,,http://www.portadoroclub.it/,nightclub,,,,,,,,,POINT (9.190435409545898 45.46234893798828),node,,,,,
223,0.0,9.1909485,4170005832,1553687908,45.462006,"{""fax"":""+39 02 72004210""}",2,Milano,IT,2,,20122,Via Paolo da Cannobio,info@shillings.it,Shilling's,,,+39 02 8693554,,https://www.shillings.it/it/shillings,nightclub,,,,,,,,,POINT (9.190948486328125 45.462005615234375),node,,,,,
224,0.0,9.189477,4170005990,1462551132,45.46261,,1,Milano,IT,2,,20122,Piazza Armando Diaz,,Venus Night Club,,,,,http://www.venusnightclub.it/,nightclub,,,,,,,,,POINT (9.18947696685791 45.462608337402344),node,,,,,
225,0.0,9.195548,4184996561,1463211649,45.47706,,1,Milano,IT,29,,20121,Via Filippo Turati,,Provocateur,,,,,,nightclub,,,,,,,,,POINT (9.195548057556152 45.47705841064453),node,,,,,
226,0.0,9.197421,4184997512,1463211697,45.474415,,1,,,,,,,,,,,,,,fountain,,,,,,,,,POINT (9.197421073913574 45.47441482543945),node,,,,,
227,0.0,9.194431,4184998390,1463211739,45.47535,,1,,,,,,,,,,,,,,fountain,,,,,,,,,POINT (9.19443130493164 45.47534942626953),node,,,,,
228,0.0,9.235799,4193435493,1481215784,45.48754,,4,Milano,IT,16,,,Via Plezzo,,The wall,Mo-Fr 11:00-02:00; Sa-Su 09:00-01:00,,,,http://www.wallmilano.com/club/,nightclub,,,,wlan,,,,,POINT (9.235798835754395 45.48754119873047),node,,,,,
229,0.0,9.184145,4217061020,1576328453,45.477543,"{""wheelchair"":""no""}",3,,,,,,,info@theclubmilano.com,The Club,,,+39 02 3653 4005,,https://www.theclubmilano.it,nightclub,,,,,,,,,POINT (9.184144973754883 45.477542877197266),node,,,,,
230,0.0,9.173863,4225439979,1558122245,45.48619,"{""contact:website"":""http://www.b38.it""}",2,Milano,,38,,20154,Via Messina,,B38 Club Milano,,,,,,nightclub,,,,,,,,,POINT (9.173863410949707 45.48619079589844),node,,,,,
231,0.0,9.348224,4228943340,1465243904,45.48161,,1,,,,,,,,,,,,,,fountain,,,,,,,,,POINT (9.348223686218262 45.48160934448242),node,,,,,
232,0.0,9.230875,4237148584,1465636263,45.534477,,1,,,,,,,,,,,,,,fountain,,,,,,,,,POINT (9.230875015258789 45.53447723388672),node,,,,,
233,0.0,9.05963,4300153952,1468406486,45.431194,,1,,,,,,,,,,,,,,fountain,,,,,,,,,POINT (9.059630393981934 45.43119430541992),node,,,,,
234,0.0,9.194075,4305610030,1468659654,45.47115,"{""fax"":""+39 02 799557""}",1,Milano,IT,40,,20121,Via Alessandro Manzoni,info@williamsnightclub.com,William's Le Roi,,,+39 02 799252,,http://www.williamsnightclub.com/night-club-milano.htm,nightclub,,,,,,,,,POINT (9.194074630737305 45.47114944458008),node,,,,,
235,0.0,8.919169,4350867268,1471256478,45.58719,,1,,,,,,,,,,,,,,fountain,,,,,,,,,POINT (8.919169425964355 45.587188720703125),node,,,,,
236,0.0,8.920263,4351437071,1471281273,45.58596,,1,,,,,,,,,,,,,,fountain,,,,,,,,,POINT (8.920263290405273 45.585960388183594),node,,,,,
237,0.0,8.918929,4382005947,1472896465,45.596207,,1,,,,,,,,,,,,,,fountain,,,,,,,,,POINT (8.918929100036621 45.59620666503906),node,,,,,
238,0.0,8.913822,4405369433,1596468329,45.59431,,2,Legnano,IT,16,,20025,Via Alberto da Giussano,,Bingo Legnano,,,,,,gambling,,,bingo,,,,,,POINT (8.913822174072266 45.59431076049805),node,,,,,
239,0.0,9.516897,4408803089,1633682642,45.599117,"{""contact:email"":""info@liveclub.it"",""contact:facebook"":""https://www.facebook.com/LIVEMUSICCLUB"",""contact:fax"":""+39 02 9098 0257"",""contact:instagram"":""http://instagram.com/liveclub"",""contact:mobile"":""+39 347 197 7297"",""contact:twitter"":""https://twitter.com/LIVEMUSICCLUB"",""contact:youtube"":""https://www.youtube.com/channel/UCvZOOVHSnX6F_OBMiWn7QpQ"",""official_name"":""Live Music Club"",""wikidata"":""Q105762107"",""wikimedia_commons"":""Category:Live Club""}",6,Trezzo sull'Adda,,58,,20056,Via Giuseppe Mazzini,,Live Club,,,,,,nightclub,,,,,,,,,POINT (9.516897201538086 45.599117279052734),node,,,,,
240,0.0,8.918126,4422622514,1640602234,45.59463,,2,,,,,,,,,,,,,,fountain,,,,,,,,,POINT (8.918126106262207 45.59463119506836),node,,,,,
241,0.0,8.918323,4422622515,1475091381,45.594765,,1,,,,,,,,,,,,,,fountain,,,,,,,,,POINT (8.918322563171387 45.594764709472656),node,,,,,
242,0.0,8.918414,4422622516,1475091381,45.594646,,1,,,,,,,,,,,,,,fountain,,,,,,,,,POINT (8.918414115905762 45.59464645385742),node,,,,,
243,0.0,9.161798,4441599267,1476166736,45.449226,,1,Milano,,98,,20144,Alzaia Naviglio Grande,,Rocket,,,3333313817,,,nightclub,,,,,,,,,POINT (9.161797523498535 45.44922637939453),node,,,,,
244,0.0,8.99417,4452926240,1541353970,45.2893,,4,,,,,,,,Oratorio San Luigi Gonzaga,,,,,,community_centre,,,,,,,,,POINT (8.994170188903809 45.28929901123047),node,,,,,
245,0.0,9.52202,4472669381,1477917577,45.61164,,1,,,,,,,,,,,,,,fountain,,,,,,,,,POINT (9.52202033996582 45.61164093017578),node,,,,,
246,0.0,9.037624,4526565959,1480348677,45.40669,"{""entrance"":""main""}",1,Gaggiano,IT,31,,20083,Via Carroccio,,Novella 73,,,,,,community_centre,,,,,,,,,POINT (9.03762435913086 45.40668869018555),node,,,,,
247,0.0,9.0456505,4530420460,1480524096,45.40777,"{""entrance"":""main""}",1,Gaggiano,IT,8,,20083,Via Leonardo da Vinci,,Jolly,,,,,,casino,,,,,,,,,POINT (9.045650482177734 45.40776824951172),node,,,,,
248,0.0,9.047596,4530729268,1480537527,45.408703,,1,Gaggiano,IT,20,,20083,Via Alessandro Volta,,Blue Club,,,,,,nightclub,,,,,,,,,POINT (9.047595977783203 45.4087028503418),node,,,,,
249,0.0,9.240467,4540455890,1627318825,45.46304,"{""contact:email"":""info@amnesiamilano.com"",""contact:facebook"":""amnesiamilano"",""contact:instagram"":""amnesiamilano"",""contact:mobile"":""+39 348 7241015"",""contact:phone"":""+39 02 70100702"",""contact:website"":""https://www.amnesiamilano.com"",""opening_hours:covid19"":""off"",""ref:vatin"":""IT03425370164""}",3,Milano,,,,20134,Via Alfonso Gatto,,Amnesia,,,,,,nightclub,,,,,,,,,POINT (9.240467071533203 45.46303939819336),node,,,,,
250,0.0,9.3621855,4566822790,1482745404,45.521442,"{""colour"":""darkgreen"",""indoor"":""no"",""material"":""wood"",""public_bookcase:type"":""reading_box"",""public_bookcase:position"":""parking_lot""}",2,,,,,,,,Book Crossing,24/7,,,,,public_bookcase,,,,,,,,,POINT (9.36218547821045 45.52144241333008),node,,,,,
251,0.0,9.363638,4566822791,1482745404,45.520096,"{""colour"":""darkgreen"",""indoor"":""no"",""material"":""wood"",""public_bookcase:type"":""reading_box"",""public_bookcase:position"":""parking_lot""}",2,,,,,,,,Book Crossing,24/7,,,,,public_bookcase,,,,,,,,,POINT (9.363637924194336 45.52009582519531),node,,,,,
252,0.0,9.39142,4566822792,1482745404,45.51723,"{""colour"":""darkgreen"",""indoor"":""no"",""material"":""wood"",""public_bookcase:type"":""reading_box"",""public_bookcase:position"":""parking_lot""}",2,,,,,,,,Book Crossing,24/7,,,,,public_bookcase,,,,,,,,,POINT (9.391420364379883 45.51723098754883),node,,,,,
253,0.0,9.159804,4568177882,1482476233,45.459866,,1,,,,,,,,,,,,,,fountain,,,,,,,,,POINT (9.159804344177246 45.45986557006836),node,,,,,
254,0.0,9.100247,4585642653,1483377041,45.333218,,1,,,,,,,,Cinema Teatro S.Luigi,,,,,,theatre,,,,,,,,,POINT (9.100247383117676 45.33321762084961),node,,,,,
255,0.0,9.186572,4622039218,1485009955,45.482395,,1,Milano,IT,13,,20154,Via Alessio di Tocqueville,,Block,,,,,,nightclub,,,,,,,,,POINT (9.186572074890137 45.48239517211914),node,,,,,
256,0.0,9.221743,4662948414,1486199484,45.515034,,1,Milano,IT,5,,20126,Via Frigia,,Teatro Studio Frigia 5,,,,,,theatre,,,,,,,,,POINT (9.221742630004883 45.51503372192383),node,,,,,
257,0.0,8.886826,4668360983,1486392605,45.460327,"{""club"":""cycling"",""community_centre"":""club_home""}",1,,,,,,,,Cicli Chiodini,,,,,,community_centre,,,,,,survey,,,POINT (8.886825561523438 45.4603271484375),node,,,,,
258,0.0,9.22967,4679735058,1486803170,45.542736,,1,,,,,,,,Oratorio Salesiano,,,,,,community_centre,,,,,,,,,POINT (9.229669570922852 45.5427360534668),node,,,,,
259,0.0,9.26141,4690482559,1487337308,45.490654,"{""community_centre"":""cultural_centre""}",1,,,,,,,,Centro Islamico di Milano e Lombardia,,,,,,community_centre,,,,,,,,,POINT (9.261409759521484 45.49065399169922),node,,,,,
260,0.0,9.265289,4697616925,1487695769,45.49041,,1,,,,,,,,,,,,,,fountain,,,,,,,,,POINT (9.265289306640625 45.49040985107422),node,,,,,
261,0.0,9.204384,4741101308,1489826059,45.465195,"{""religion"":""christian"",""denomination"":""catholic""}",1,,,,,,,,Oratorio Pier Giorgio Frassati,,,,,,community_centre,,,,,,,,,POINT (9.204383850097656 45.46519470214844),node,,,,,
262,0.0,9.198416,4741108447,1505458604,45.46597,"{""fax"":""+39 02 76008247"",""wikidata"":""Q3661251""}",2,Milano,IT,3,,20122,Via Borgogna,segreteria@casadellacultura.it,Casa della Cultura,,,+39 02 795567,,http://www.casadellacultura.it/,community_centre,,,,,,,,it:Casa della Cultura,POINT (9.198415756225586 45.46596908569336),node,,,,,
263,0.0,9.168455,4781364995,1491579175,45.48646,"{""religion"":""christian"",""denomination"":""catholic""}",2,,,,,,,,Oratorio Santa Maria di Lourdes,,,,,,community_centre,,,,,,,,,POINT (9.168455123901367 45.4864616394043),node,,,,,
264,0.0,9.229376,4782439639,1491638661,45.534885,,1,,,,,,,,,,,,,,fountain,,,,,,,,,POINT (9.229375839233398 45.53488540649414),node,,,,,
265,0.0,8.922689,4784584406,1491750215,45.58417,,1,,,,,,,,,,,,,,fountain,,,,,,,,,POINT (8.922689437866211 45.584171295166016),node,,,,,
266,0.0,8.922557,4807166860,1492763381,45.598965,,1,,,,,,,,,,,,,,fountain,,,,,,,,,POINT (8.92255687713623 45.59896469116211),node,,,,,
267,0.0,8.953398,4839136195,1494104624,45.48784,,1,,,,,,,,,,,,,,cinema,,,,,,,,,POINT (8.953397750854492 45.48783874511719),node,,,,,
268,0.0,9.101159,4868242431,1495385566,45.620266,,1,,,,,,,,Queen'S Slot,,,,,,casino,,,,,,,,,POINT (9.10115909576416 45.62026596069336),node,,,,,
269,0.0,9.094161,4870043189,1495465332,45.44639,"{""addr:province"":""Milano""}",1,Cesano Boscone,IT,7,,20090,Via Monsignor Pogliani,,Circolo Achille Grandi,,,,,,community_centre,,,,,,,,,POINT (9.094161033630371 45.446388244628906),node,,,,,
270,0.0,9.08631,4887304586,1498258289,45.433807,"{""community_centre:for"":""juvenile""}",2,,,,,,,,Centro Giovani Tessera,,,,,,community_centre,,,,,,,,,POINT (9.086310386657715 45.433807373046875),node,,,,,
271,0.0,8.818081,4898421088,1496704126,45.478104,,1,,,,,,,,,,,,,,fountain,,,,,,,,,POINT (8.81808090209961 45.47810363769531),node,,,,,
272,0.0,9.338652,4905435626,1496997265,45.52386,,1,,,,,,,,,,,,,,fountain,,,,,,,,,POINT (9.338651657104492 45.523860931396484),node,,,,,
273,0.0,9.224294,4934281583,1498320478,45.50964,,1,Milano,IT,10,,20128,Piazzale Martesana,,Las Vegas,,,,,,gambling,,,,,,,,,POINT (9.22429370880127 45.509639739990234),node,,,,,
274,0.0,9.176378,4935439070,1500024565,45.498966,,2,,,,,,,,anfiteatro,,,,,,theatre,,,,,,,,,POINT (9.17637825012207 45.498966217041016),node,,,,,
275,0.0,8.928881,4946792663,1498989334,45.570515,,1,,,,,,,,,,,,,,fountain,,,,,,,,,POINT (8.92888069152832 45.57051467895508),node,,,,,
276,0.0,8.927262,4946793166,1611393254,45.56945,"{""alt_name"":""torio maschile di Canegrate"",""community_centre"":""parish_hall"",""denomination"":""catholic"",""religion"":""christian""}",3,Canegrate,,3,,20039,Via Volontari della Libertà,,Oratorio San Luigi,,,,,,community_centre,,,,,,,,,POINT (8.927262306213379 45.56945037841797),node,,,,,
277,0.0,9.194114,4985229431,1500653239,45.49587,,1,Milano,IT,38,,20159,Viale Marche,,Bingo Zara Milano,,,,,,gambling,,,slot_machines,,,,,,POINT (9.194113731384277 45.49586868286133),node,,,,,
278,0.0,9.226917,5139032295,1506757499,45.52489,,1,Sesto San Giovanni,IT,152,,20099,Via Monte San Michele,,Cineteatro Vittoria,,,,,,theatre,,,,,,,,,POINT (9.226917266845703 45.5248908996582),node,,,,,
279,0.0,9.1728735,5155498491,1507478701,45.4522,"{""religion"":""christian"",""denomination"":""catholic""}",1,,,,,,,,Oratorio Santa Maria al Naviglio,,,,,,community_centre,,,,,,,,,POINT (9.172873497009277 45.45220184326172),node,,,,,
280,0.0,9.213894,5173579991,1546534744,45.485004,,2,Milano,IT,7,,,Via Giovanni Pierluigi da Palestrina,,Cinema Palestrina,,,+39 02 87241925,,,cinema,,,,,,,,,POINT (9.21389389038086 45.48500442504883),node,,,,,
281,0.0,9.23979,5199504944,1509347741,45.492825,"{""studio"":""television"",""short_name"":""Studi Televisivi Deruta""}",1,Milano,,19,,20132,Via Mestre,,Studi Televisivi Centro Produzione Deruta,,,,,,studio,,,,,,,,,POINT (9.239789962768555 45.49282455444336),node,,,,,
282,0.0,8.947849,5236282649,1511007595,45.55886,"{""inscription"":""A Giuseppe Maggiolini 1969""}",1,,,,,,,,,,,,,,fountain,,,,,,,1969,,POINT (8.94784927368164 45.558860778808594),node,,,,,
283,0.0,8.946793,5236282703,1511007597,45.557163,"{""gamling"":""slot_machines""}",1,,,,,,,,L'Angolo della Fortuna,,,,,,gambling,,,,,,,,,POINT (8.946792602539062 45.55716323852539),node,,,,,
284,0.0,9.180802,5246031721,1511711945,45.46785,,4,Milano,IT,67,,,Foro Buonaparte,,Fondazione Matalon,"Tu-Th, Sa-Su 10:00-19:00; Fr 10:00-22:00; Mo closed",,,,http://www.fondazionematalon.org,conference_centre,,,,,foundation,,,,POINT (9.180802345275879 45.46784973144531),node,,,,,
285,0.0,8.998358,5246846015,1511601431,45.527195,,1,Vanzago,IT,28,,20010,Via Giuseppe Garibaldi,,Cinema Teatro Flores,,,,,http://www.cinemaflores.it/,theatre,,,,,,,,,POINT (8.998357772827148 45.52719497680664),node,,,,,
286,0.0,8.955763,5257373182,1512122303,45.48446,"{""water"":""fountain""}",1,,,,,,,,,,,,,,fountain,,,,,,,,,POINT (8.95576286315918 45.484458923339844),node,,,,,
287,0.0,9.154725,5259883590,1555973472,45.478218,,2,,,,,,,,Anteo Citylife,,,,,,cinema,,,,,,,,,POINT (9.154725074768066 45.47821807861328),node,,,,,
288,0.0,9.212904,5269775962,1512645556,45.5162,,1,,,,,,,,,,,,,,fountain,,,,,,,,,POINT (9.21290397644043 45.51620101928711),node,,,,,
289,0.0,9.213079,5269775963,1512645556,45.516155,,1,,,,,,,,,,,,,,fountain,,,,,,,,,POINT (9.213079452514648 45.51615524291992),node,,,,,
290,0.0,9.213144,5269775964,1512645556,45.516273,,1,,,,,,,,,,,,,,fountain,,,,,,,,,POINT (9.213144302368164 45.516273498535156),node,,,,,
291,0.0,9.212968,5269775965,1512645556,45.51632,,1,,,,,,,,,,,,,,fountain,,,,,,,,,POINT (9.212967872619629 45.516319274902344),node,,,,,
292,0.0,9.212716,5269775966,1512645556,45.516262,,1,,,,,,,,,,,,,,fountain,,,,,,,,,POINT (9.212716102600098 45.51626205444336),node,,,,,
293,0.0,9.212542,5269775967,1512645556,45.51631,,1,,,,,,,,,,,,,,fountain,,,,,,,,,POINT (9.212541580200195 45.51631164550781),node,,,,,
294,0.0,9.212775,5269775968,1512645556,45.516376,,1,,,,,,,,,,,,,,fountain,,,,,,,,,POINT (9.212775230407715 45.51637649536133),node,,,,,
295,0.0,9.212604,5269775969,1512645556,45.516426,,1,,,,,,,,,,,,,,fountain,,,,,,,,,POINT (9.212603569030762 45.51642608642578),node,,,,,
296,0.0,8.95339,5285625334,1513333610,45.48754,,1,,,,,,,,Fontana-stagno,,,,,,fountain,,,,,,,,,POINT (8.953390121459961 45.48754119873047),node,,,,,
297,0.0,9.168649,5300438341,1514019194,45.465225,,1,Milano,IT,12,,20123,Via Morozzo della Rocca,,Cineteatro San Carlo,,,,,,cinema,,,,,,,,,POINT (9.168648719787598 45.46522521972656),node,,,,,
298,0.0,9.115026,5308082511,1514452103,45.49649,,1,,,,,,,,Municipio 8,,,,,,community_centre,,,,,,,,,POINT (9.115026473999023 45.496490478515625),node,,,,,
299,0.0,8.947359,5312107933,1514644631,45.486904,"{""water"":""fountain"",""private"":""yes""}",1,,,,,,,,,,,,,,fountain,,,,,,,,,POINT (8.947359085083008 45.48690414428711),node,,,,,
300,0.0,8.906551,5338637073,1515925976,45.59378,"{""religion"":""christian"",""denomination"":""catholic""}",1,,,,,,,,Oratorio Beato Pier Giorgio Fossati,,,,,,community_centre,,,,,,,,,POINT (8.906551361083984 45.593780517578125),node,,,,,
301,0.0,9.1782,5398408772,1518097512,45.55316,"{""religion"":""christian"",""denomination"":""catholic"",""community_centre"":""parish_hall"",""community_centre:for"":""juvenile""}",1,Cusano Milanino,IT,36,,20095,Viale Enrico Pedretti,,Oratorio San Martino,,,,,,community_centre,,,,,,,,,POINT (9.178199768066406 45.55316162109375),node,,,,,
302,0.0,9.217551,5405179058,1518352204,45.496628,,1,Milano,IT,7,,,Via Ottavio Rinuccini,,Baia Disco Club,,,,,,nightclub,,,,,,,,,POINT (9.217551231384277 45.49662780761719),node,,,,,
303,0.0,9.375823,5424256857,1519121791,45.53556,,1,,,,,,,,,,,,,,fountain,,,,,,,,,POINT (9.375823020935059 45.535560607910156),node,,,,,
304,0.0,9.176004,5432963121,1519464907,45.463528,,1,,,,,,,,,,,,,,fountain,,,,,,,,,POINT (9.176004409790039 45.46352767944336),node,,,,,
305,0.0,9.176171,5432963122,1519464907,45.46336,,1,,,,,,,,,,,,,,fountain,,,,,,,,,POINT (9.17617130279541 45.46335983276367),node,,,,,
306,0.0,9.252277,5438626021,1575721676,45.452126,,2,Milano,,9,,20138,Via Gaudenzio Fantoli,,Fabrique,,,+39 02 506 3008,,https://www.fabriquemilano.it,nightclub,,,,,,,,,POINT (9.252277374267578 45.452125549316406),node,,,,,
307,0.0,9.236995,5438690434,1519690836,45.415836,,1,,,,,,,,,,,,,,fountain,,,,,,,,,POINT (9.236994743347168 45.415836334228516),node,,,,,
308,0.0,9.19578,5468803283,1520672490,45.48081,"{""level"":""-1""}",1,Milano,IT,1,,20124,Piazza Lina Bo Bardi,,The Mall,,,,,,conference_centre,,,,,,,,,POINT (9.195779800415039 45.48080825805664),node,,,,,
309,0.0,9.2161875,5486359530,1601845662,45.444454,"{""alt_name"":""Lime""}",2,Milano,,6,,20139,Via Tullo Massarani,,Ligh Lime,,,+39 348 1082533,,https://www.limemilano.it/,nightclub,,,,,,,,,POINT (9.216187477111816 45.444454193115234),node,,,,,
310,0.0,9.167662,5515794058,1522396118,45.478138,"{""studio"":""radio""}",1,Milano,IT,2,,,Via Andrea Massena,,Radio Deejay,,,,,,studio,,,,,,,,,POINT (9.167661666870117 45.4781379699707),node,,,,,
311,0.0,8.872222,5522415641,1522669685,45.487244,"{""religion"":""christian"",""denomination"":""catholic""}",1,,,,,,,,Oratorio San Marco,,,,,,community_centre,,,,,,,,,POINT (8.872221946716309 45.48724365234375),node,,,,,
312,0.0,8.92821,5577418322,1587799341,45.613056,"{""wheelchair"":""yes""}",3,Legnano,,27,,20025,Via Maestri del Lavoro,,Land Of Freedom,,,+39 347 736 7941,,,nightclub,,,,,,,,,POINT (8.928210258483887 45.61305618286133),node,,,,,
313,0.0,9.04193,5645700376,1527420257,45.525562,,1,,,,,,,,,,,,,,gambling,,,slot_machines,,,,,,POINT (9.041930198669434 45.52556228637695),node,,,,,
314,0.0,9.246942,5656260666,1527856729,45.509144,,1,,,,,,,,,,,,,,fountain,,,,,,,,,POINT (9.246941566467285 45.5091438293457),node,,,,,
315,0.0,9.344913,5672959543,1528384448,45.455948,,1,,,,,,,,Oratorio di Cassignanica,,,,,,community_centre,,,,,,,,,POINT (9.3449125289917 45.45594787597656),node,,,,,
316,0.0,9.206456,5680173931,1528656465,45.48546,,1,,,,,,,,,,,,,,fountain,,,,,,,,,POINT (9.206456184387207 45.48545837402344),node,,,,,
317,0.0,9.207104,5680173933,1528656465,45.48609,,1,,,,,,,,,,,,,,fountain,,,,,,,,,POINT (9.207103729248047 45.48609161376953),node,,,,,
318,0.0,9.216437,5694558348,1529146407,45.492416,,1,,,,,,,,,,,,,,gambling,,,slot_machines,,,,,,POINT (9.216437339782715 45.49241638183594),node,,,,,
319,0.0,9.218682,5694558531,1627406830,45.492027,,2,,,,,,,,Sala Fortuna,,,,,,gambling,,,slot_machines,,,,,,POINT (9.218682289123535 45.492027282714844),node,,,,,
320,0.0,9.209013,5728779222,1530292616,45.492226,,1,,,,,,,,Tunnel Club,,,,,http://tunnel-milano.it,nightclub,,,,,,,,,POINT (9.209012985229492 45.492225646972656),node,,,,,
321,0.0,8.9450655,5731932339,1530444524,45.557915,,1,,,,,,,,,,,,,,fountain,,,,,,,,,POINT (8.94506549835205 45.55791473388672),node,,,,,
322,0.0,9.18129,5731971396,1530446868,45.576294,,1,,,,,,,,Teatro Stefano Strada,,,,,,theatre,,,,,,,,,POINT (9.181289672851562 45.5762939453125),node,,,,,
323,0.0,9.14527,5759888945,1531554922,45.478233,,1,Milano,IT,84,,20149,Via Monte Rosa,,Centro Sociale Il Cantiere,,,,,,community_centre,,,,,,,,,POINT (9.145270347595215 45.478233337402344),node,,,,,
324,0.0,9.188276,5787403385,1532616518,45.536858,,1,,,,,,,,Fontana del Mappamondo,,,,,,fountain,,,,,,,,,POINT (9.188276290893555 45.53685760498047),node,,,,,
325,0.0,9.145499,5871343620,1587598020,45.475853,,2,,,94,,,Via Mosè Bianchi,,Auditorium PIME,,,,,,theatre,,,,,,,,,POINT (9.145499229431152 45.475852966308594),node,,,,,
326,0.0,8.91788,5875317625,1535876777,45.593056,,1,,,,,,,,,,,,,,fountain,,,,,,,,,POINT (8.917880058288574 45.593055725097656),node,,,,,
327,0.0,9.181003,5923881988,1537700286,45.4738,,1,,,,,,,,,,,,,,fountain,,,,,,,,,POINT (9.181002616882324 45.47380065917969),node,,,,,
328,0.0,9.281235,5940442821,1538304196,45.529903,,1,Cologno Monzese,IT,21,,20093,Via Don Pietro Giudici,,Cineteatro San Marco,,,,,,cinema,,,,,,,,,POINT (9.281234741210938 45.529903411865234),node,,,,,
329,0.0,9.136704,5978636654,1539352814,45.467705,,1,,,,,,,,,,,,,,fountain,,,,,,,,,POINT (9.136704444885254 45.46770477294922),node,,,,,
330,0.0,9.039517,5978881902,1539417278,45.529743,,2,Rho,IT,15,,20017,Via Edmondo De Amicis,,"Auditorium ""Monsignor Carlo Maggiolini""",,,,,,theatre,,,,,,,,,POINT (9.039517402648926 45.52974319458008),node,,,,,
331,0.0,8.879198,6001138123,1540057397,45.461273,,1,,,,,,,,Centro polifunzionale dottor Mauro Leone,,Centro diurno anziani,,,,community_centre,,,,,,,,,POINT (8.87919807434082 45.461273193359375),node,,,,,
332,0.0,9.175832,6017276135,1540627171,45.479614,"{""religion"":""christian"",""denomination"":""catholic"",""community_centre"":""parish_hall""}",1,,,,,,,,Oratorio Santissima Trinità,,,,,,community_centre,,,,,,,,,POINT (9.17583179473877 45.4796142578125),node,,,,,
333,0.0,8.990318,6034167898,1541258253,45.286938,,1,,,,,,,,Centro Civico,,,,,,community_centre,,,,,,,,,POINT (8.990318298339844 45.28693771362305),node,,,,,
334,0.0,8.993784,6037284994,1541353970,45.289272,"{""amenity_1"":""theatre""}",1,,,,,,,,Cineteatro Arcobaleno,,,,,,cinema,,,,,,,,,POINT (8.993783950805664 45.28927230834961),node,,,,,
335,0.0,9.198518,6087470974,1543055165,45.463497,,1,Milano,IT,7,,20122,Largo Augusto,,Extasià,,,+39 02 76006679,,http://www.extasiadiscotopless.com/,nightclub,,,,,,,,,POINT (9.198517799377441 45.463497161865234),node,,,,,
336,0.0,9.176482,6124586637,1544256254,45.48174,,1,Milano,IT,2 N01,,,Via Arnolfo di Cambio,,,,,,,,gambling,,,slot_machines,,,,,,POINT (9.176482200622559 45.48173904418945),node,,,,,
337,0.0,9.245293,6148445585,1623574949,45.50759,,2,Milano,,272,,20132,Via Padova,,District 272,,,+39 349 6908519,,http://www.district272.com/,nightclub,,,,,,,,,POINT (9.245292663574219 45.507591247558594),node,,,,,
338,0.0,9.415381,6190527800,1558518936,45.553616,"{""addr:unit"":""32""}",2,Gessate,,107/33,,20060,Via Monza,milano@lamaisondelamour.com,La Maison de l'amour,,,+39 02 953 813 30,,http://milano.lamaisondelamour.com,swingerclub,,,,,,,,,POINT (9.41538143157959 45.55361557006836),node,,,,,
339,0.0,9.212021,6249497669,1548941798,45.523396,,1,,,,,,,,,,,,,,fountain,,,,,,,,,POINT (9.212020874023438 45.52339553833008),node,,,,,
340,0.0,9.229792,6284640534,1550480660,45.477165,"{""club"":""linux"",""level"":""0"",""alt_name"":""Politecnico Open unix Labs"",""addr:unit"":""Edificio 9"",""addr:floor"":""0"",""opening_hours:url"":""https://bits.poul.org"",""community_centre:for"":""student""}",2,Milano,,7,,20133,Via Giovanni Celoria,,POuL,,,,,https://poul.org,community_centre,,,,,,,,,POINT (9.229791641235352 45.47716522216797),node,,,,,
341,0.0,9.229792,6284640535,1550480660,45.47712,"{""club"":""amateur_radio"",""level"":""1"",""addr:floor"":""1"",""community_centre:for"":""student""}",2,Milano,,7,,20133,Via Giovanni Celoria,,PoliRadio,,,,,https://www.poliradio.it/,community_centre,,,,,,,,,POINT (9.229791641235352 45.47711944580078),node,,,,,
342,0.0,9.181147,6305238238,1551256340,45.501175,,1,,,,,,,,Radio Millennium,,,,,,studio,,,,,,,,,POINT (9.181146621704102 45.50117492675781),node,,,,,
343,0.0,9.434543,6369663255,1594985921,45.554523,"{""club"":""motorcycle"",""community_centre"":""club"",""community_centre:for"":""biker""}",3,,,,,,,,Moto Club Gessate,"Mo 22:00-23:00, Fr 22:00-23:00",,,,https://motoclubgessate.it,community_centre,,,,,,,,,POINT (9.434542655944824 45.55452346801758),node,,,,,
344,0.0,9.184079,6370709685,1553905671,45.45689,,2,,,,,,,,Volt Club,,,,,https://www.voltclub.it/,nightclub,,,,,,,,,POINT (9.18407917022705 45.45689010620117),node,,,,,
345,0.0,9.346588,6406679689,1555333371,45.523968,"{""access"":""private""}",1,,,,,,,,Auditorium,,,,,,conference_centre,,,,,,,,,POINT (9.346588134765625 45.52396774291992),node,,,,,
346,0.0,9.202099,6449478161,1557062031,45.433186,,1,,,,,,,,Tucano,,,,,http://www.discotucano.it,nightclub,,,,,,,,,POINT (9.202098846435547 45.43318557739258),node,,,,,
347,0.0,9.138954,6451574994,1557136179,45.449024,,1,,,,,,,,,,,,,,fountain,,,,,,,,,POINT (9.138954162597656 45.44902420043945),node,,,,,
348,0.0,9.139464,6451574995,1557136179,45.44917,,1,,,,,,,,,,,,,,fountain,,,,,,,,,POINT (9.139464378356934 45.44916915893555),node,,,,,
349,0.0,9.148383,6469335124,1557732488,45.448593,,1,,,,,,,,,,,,,,fountain,,,,,,,,,POINT (9.148383140563965 45.44859313964844),node,,,,,
350,0.0,9.179438,6475087590,1557916464,45.51616,,1,,,,,,,,Legend Club,,,,,,nightclub,,,,,,,,,POINT (9.179437637329102 45.51615905761719),node,,,,,
351,0.0,9.152974,6539292085,1569056045,45.479992,,2,,,,,,,info@fieramilanocongressi.it,MiCo Milano Convention Centre,,,+39-02-4997-7134,,https://www.micomilano.it,conference_centre,,,,,,,,,POINT (9.152974128723145 45.4799919128418),node,,,,,
352,0.0,8.744465,6588581188,1562236016,45.53193,"{""fixme"":""not sure if this one should be tagged also as drinking_water=yes""}",1,,,,,,,,,,,,,,fountain,,,,,,,,,POINT (8.744464874267578 45.53192901611328),node,,,,,
353,0.0,9.264434,6594425200,1562500210,45.39608,,1,,,,,,,,,,,,,,fountain,,,,,,,,,POINT (9.264433860778809 45.396080017089844),node,,,,,
354,0.0,8.8864,6596776328,1562596294,45.436745,,1,,,,,,,,Orarorio San Giovanni Bosco,,,,,,community_centre,,,,,,,,,POINT (8.88640022277832 45.436744689941406),node,,,,,
355,0.0,9.423421,6603463801,1622024875,45.573162,,2,,,,,,,,Oratorio San Tarcisio,,,,,,community_centre,,,,,,,,,POINT (9.423420906066895 45.57316207885742),node,,,,,
356,0.0,9.173398,6699736354,1565501823,45.452843,"{""brand"":""Bookcrossing"",""location"":""indoor""}",1,Milano,IT,19,,20144,Via Vigevano,,Tongs,,,,,,public_bookcase,,,,,,,,,POINT (9.1733980178833 45.452842712402344),node,,,,,
357,0.0,9.153805,6774964446,1567696083,45.442104,,1,Milano,,40,,,Via Ettore Ponti,,Arci Biko,,,,,,nightclub,,,,,,,,,POINT (9.153804779052734 45.44210433959961),node,,,,,
358,0.0,9.327722,6817320932,1569240196,45.482628,,1,,,,,,,,,,,,,,fountain,,,,,,,,,POINT (9.32772159576416 45.482627868652344),node,,,,,
359,0.0,9.2242775,6884915726,1571214897,45.431393,"{""operator:type"":""community""}",1,Milano,,78,,20139,Via San Dionigi,,Cascina Nosedo,,La Strada Coop. Sociale,,,,social_centre,,,,,,,,,POINT (9.22427749633789 45.431392669677734),node,,,,,
360,0.0,9.154151,6910598163,1571864281,45.453743,,1,,,,,,,,,,,,,,fountain,,,,,,,,,POINT (9.15415096282959 45.45374298095703),node,,,,,
361,0.0,8.94618,6966096761,1573468763,45.55315,,1,,,,,,,,Studio Sinisi,,,,,,studio,,,,,,,,,POINT (8.94618034362793 45.55315017700195),node,,,,,
362,0.0,8.945986,6966134773,1573469465,45.55512,"{""reservation"":""only"",""contact:phone"":""+39 02 43911642""}",1,,,,,,,,Studio Porrini,,,,,,studio,,,,,,,,,POINT (8.945985794067383 45.555118560791016),node,,,,,
363,0.0,8.946081,6966148766,1573469596,45.555927,"{""reservation"":""only"",""contact:phone"":""+39 0331495134""}",1,,,,,,,,Avv. Stefano Rossetti,,,,,,studio,,,,,,,,,POINT (8.946081161499023 45.55592727661133),node,,,,,
364,0.0,8.988613,6967699485,1573511588,45.4774,"{""lit"":""yes""}",1,,,,,,,,Fontana del Bareggino,,,,,,fountain,,,,,,local knowledge;aerial imagery;gps,,,POINT (8.98861312866211 45.47740173339844),node,,,,,
365,0.0,9.231129,7037154563,1575587255,45.475945,,1,,,,,,,,,,,,,,fountain,yes,,,,,,,,POINT (9.231128692626953 45.47594451904297),node,,,,,
366,0.0,8.926502,7051542467,1620461444,45.569645,"{""smoking"":""no"",""wheelchair"":""no""}",3,Canegrate,,,,20039,Via Mario Zanzottera,,Sala Cervi,,Circolo Bell'Unione,,,,events_venue,,,,,,,,,POINT (8.926502227783203 45.569644927978516),node,,,,,
367,0.0,9.379163,7060489144,1615113038,45.49612,"{""short_name"":""Centro Vittorio Vitali""}",3,Vignate,,19,,20052,Via Guglielmo Marconi,,Centro Associativo Vittorio Vitali,,,,,,community_centre,,,,,,,,,POINT (9.379162788391113 45.49612045288086),node,,,,,
368,0.0,9.206107,7108072093,1578174097,45.438137,"{""contact:facebook"":""https://www.facebook.com/clubplasticmilano""}",1,,,,,,,,Plastic,,,,,,nightclub,,,,,,,,,POINT (9.206107139587402 45.43813705444336),node,,,,,
369,0.0,9.213923,7112280578,1594737539,45.49732,,2,,,114,,,Via Giovanni Battista Sammartini,,Rifugio Caritas Ambrosiana,,,,,,community_centre,,,,,,,,,POINT (9.213923454284668 45.497318267822266),node,,,,,
370,0.0,9.175665,7118505214,1578541056,45.485676,,1,,,,,,,,,,,,,,public_bookcase,,,,,,,,,POINT (9.175664901733398 45.48567581176758),node,,,,,
371,0.0,9.196702,7121884423,1578652130,45.463196,,1,,,,,,,,,,,,,,cinema,,,,,,,,,POINT (9.196702003479004 45.46319580078125),node,,,,,
372,0.0,9.154648,7139715666,1579281173,45.46907,,1,,,,,,,,Luckyville,,,,,,gambling,,,,,,,,,POINT (9.154647827148438 45.46907043457031),node,,,,,
373,0.0,9.511744,7233516991,1582302896,45.514008,,1,,,,,,,,,,,,,,fountain,,,,,,,,,POINT (9.511743545532227 45.514007568359375),node,,,,,
374,0.0,9.166783,7234838251,1582364031,45.46283,,1,Milano,,42,,20123,Via Gian Battista Vico,,hub42rooftop,,,,,,events_venue,,,,,,,,,POINT (9.166783332824707 45.46282958984375),node,,,,,
375,0.0,9.191458,7235042648,1582370067,45.461327,,1,,,,,,,,Foca Loca,,,,,,nightclub,,,,,,,,,POINT (9.191457748413086 45.461326599121094),node,,,,,
376,0.0,9.381089,7318875652,1584874762,45.49916,,1,,,,,,,,,,,,,,fountain,no,,,,,,,,POINT (9.381089210510254 45.49916076660156),node,,,,,
377,0.0,9.222256,7446508325,1587829522,45.35722,,1,,,,,,,,Centro Giovani Rebelot,,,,,,community_centre,,,,,,,,,POINT (9.22225570678711 45.35721969604492),node,,,,,
378,0.0,9.376883,7453142705,1587988997,45.49593,,1,,,,,,,,Sala consigliare,,Comune di Vignate,,,,events_venue,,,,,,,,,POINT (9.376882553100586 45.49592971801758),node,,,,,
379,0.0,9.222933,7499043720,1588962939,45.554157,,1,,,,,,,,,,,,,,fountain,,,,,,,,,POINT (9.222932815551758 45.55415725708008),node,,,,,
380,0.0,9.256896,7532974508,1589813709,45.47167,,1,,,,,,,,,,,,,,fountain,,,,,,,,,POINT (9.256896018981934 45.4716682434082),node,,,,,
381,0.0,9.276472,7532974509,1589813709,45.47278,,1,,,,,,,,,,,,,,fountain,,,,,,,,,POINT (9.276472091674805 45.4727783203125),node,,,,,
382,0.0,9.174776,7643286220,1592826164,45.4272,,1,Milano,,17,,20142,Via Pietro Boifava,,Teatro Ringhiera,,,,,https://www.atirteatroringhiera.it/,theatre,,,,,,,,,POINT (9.174776077270508 45.42720031738281),node,,,,,
383,0.0,9.177911,7707210111,1594565019,45.466022,,1,,,,,,,,MTM Teatro Litta,,,,,,theatre,,,,,,,,,POINT (9.177910804748535 45.46602249145508),node,,,,,
384,0.0,9.163692,7707210112,1594565019,45.44644,,1,,,,,,,,Teatro Linguaggi creativi,,,,,,theatre,,,,,,,,,POINT (9.163692474365234 45.446441650390625),node,,,,,
385,0.0,9.190752,7707210113,1594565019,45.51491,,1,,,,,,,,Teatro della Cooperativa,,,,,,theatre,,,,,,,,,POINT (9.190752029418945 45.51491165161133),node,,,,,
386,0.0,8.944447,7771191492,1596144176,45.586327,,1,,,,,,,,,,,,,,fountain,,,,,,,,,POINT (8.944446563720703 45.586326599121094),node,,,,,
387,0.0,9.237252,7807403520,1597256584,45.48288,,1,,,,,,,,,,,,,,fountain,,,,,,,,,POINT (9.237252235412598 45.482879638671875),node,,,,,
388,0.0,9.145423,7837261942,1598192341,45.46735,,1,,,,,,,,,,,,,,fountain,,,,,,,,,POINT (9.14542293548584 45.467350006103516),node,,,,,
389,0.0,9.246614,7844608863,1598393161,45.4856,"{""studio"":""audio""}",1,Milano,,34,,20134,Via Egidio Folli,,Hukapan,,,,,,studio,,,,,,,,,POINT (9.246614456176758 45.485599517822266),node,,,,,
390,0.0,8.949459,7856407318,1598699780,45.59493,,1,Cerro Maggiore,,,,20023,,,,,,,,,gambling,,,,,,,,,POINT (8.949459075927734 45.59492874145508),node,,,,,
391,0.0,8.9366,7884931134,1599508933,45.604836,"{""club"":""scout"",""contact:email"":""info@legnano9.it"",""contact:website"":""https://www.legnano9.it"",""image"":""https://www.legnano9.it/A_Images/Legnano9.png"",""operator:type"":""association""}",1,Legnano,,32,,20025,Via Luigi Girardi,,Legnano 9,,AGESCI,,,,community_centre,,,,,,,1995,,POINT (8.936599731445312 45.604835510253906),node,,,,,
392,0.0,9.005064,7889529206,1599641556,45.515762,,1,,,,,,,,,,,,,,public_bookcase,,,,,,,,,POINT (9.005064010620117 45.51576232910156),node,,,,,
393,0.0,9.139606,7934055578,1600855047,45.53132,,1,Novate Milanese,,15,,20026,Via della Repubblica,,Centro Socio Culturale Coop,,,,,,social_centre,,,,,,,,,POINT (9.139606475830078 45.53131866455078),node,,,,,
394,0.0,9.145229,7946114446,1601154850,45.467888,,1,,,,,,,,,,,,,,fountain,,,,,,,,,POINT (9.14522933959961 45.46788787841797),node,,,,,
395,0.0,8.99868,7965905976,1601630635,45.373104,,1,,,,,,,,Sede Culturale,,,,,,community_centre,,,,,,,,,POINT (8.998680114746094 45.373104095458984),node,,,,,
396,0.0,9.017143,8065014031,1604050860,45.350025,,1,,,,,,,,Centro Socio Assistenziale Comunale,,Comune di Rosate,,,,community_centre,,,,,,,,,POINT (9.017143249511719 45.35002517700195),node,,,,,
397,0.0,9.018305,8065014045,1604050860,45.350903,"{""community_centre:for"":""senior""}",1,,,,,,,,Centro Anziani,,Comune di Rosate,,,,community_centre,,,,,,,,,POINT (9.018304824829102 45.35090255737305),node,,,,,
398,0.0,8.92548,8068743373,1611393254,45.570656,"{""alt_name"":""Oratorio femminile di Canegrate"",""community_centre"":""parish_hall"",""denomination"":""catholic"",""religion"":""christian""}",2,Canegrate,,,,20039,,,Oratorio Maria Immacolata,,,,,,community_centre,,,,,,,,,POINT (8.925479888916016 45.570655822753906),node,,,,,
399,0.0,9.3232155,8079636691,1604456517,45.37011,,1,,,,,,,,,,,,,,fountain,,,,,,,,,POINT (9.32321548461914 45.37010955810547),node,,,,,
400,0.0,9.256019,8194855586,1607105230,45.4902,,1,,,,,,,,,,,,,,fountain,,,,,,,,,POINT (9.25601863861084 45.49020004272461),node,,,,,
401,0.0,9.185567,8212438284,1607588276,45.479485,"{""contact:phone"":""+39 02 35987353"",""description"":""Arte contemporanea ed eventi"",""tourism"":""gallery""}",1,,,,,,,,Dream Factory,,,+39 02 35987353,,https://www.dreamfactory.it,events_venue,,,,,,,,,POINT (9.185566902160645 45.47948455810547),node,,,,,
402,0.0,8.955235,8248760564,1608576279,45.57051,"{""contact:email"":""empyredisco@gmail.com"",""contact:facebook"":""https://www.facebook.com/1152906494811071"",""contact:fax"":""+39 0331 558444"",""contact:mobile"":""+39 334 6696494"",""contact:phone"":""+39 0331 494011"",""contact:website"":""http://www.empyre.it/"",""ref:vatin"":""IT11662870150"",""smoking"":""outside""}",1,Parabiago,,2,,20015,Via Filarete,,Empyre,,,,,,nightclub,,,,,,,,,POINT (8.95523452758789 45.57051086425781),node,,,,,
403,0.0,8.980703,8263447696,1611403271,45.578636,"{""alt_name"":""Oratorio di Cantalupo"",""community_centre"":""parish_hall"",""contact:email"":""info@oratoricmc.it"",""contact:mobile"":""+39 340 4275383"",""denomination"":""catholic"",""name:etymology"":""San Giovanni Bosco"",""name:etymology:wikidata"":""Q146183"",""old_name"":""Oratorio maschile di Cantalupo"",""operator:type"":""religious"",""religion"":""christian"",""wheelchair"":""yes""}",3,Cantalupo,,11,,20023,Piazza Don Carlo Bianchi,,Oratorio San Giovanni Bosco,,Parrocchia di Cantalupo,,,,community_centre,,,,,,,,,POINT (8.980703353881836 45.578636169433594),node,,,,,
404,0.0,9.401486,8321464401,1610636073,45.532715,,1,,,,,,,,Auditorium,,,,,,conference_centre,,,,,,,,,POINT (9.40148639678955 45.53271484375),node,,,,,
405,0.0,9.147797,8327160971,1610795207,45.501034,,1,,,,,,,,Mondo di Comunità e Famiglia,,,,,http://www.comunitaefamiglia.org/,community_centre,,,,,,,,,POINT (9.147796630859375 45.501033782958984),node,,,,,
406,0.0,8.956154,8343068200,1611213007,45.593197,"{""contact:facebook"":""https://www.facebook.com/pages/Auditorium-di-Cerro-Maggiore/167831760818182""}",2,Cerro Maggiore,,2,,20023,Via Giovanni Boccaccio,,Auditorium comunale,,,,,,conference_centre,,,,,,,,,POINT (8.956153869628906 45.593196868896484),node,,,,,
407,0.0,8.952081,8343068203,1611402463,45.594173,"{""alt_name"":""Oratorio di Cerro Maggiore"",""community_centre"":""parish_hall"",""contact:facebook"":""https://www.facebook.com/oratoriocerro"",""contact:phone"":""+39 0331 515028"",""contact:website"":""https://oratoricmc.it/"",""denomination"":""catholic"",""religion"":""christian""}",2,Cerro Maggiore,,18,,20023,Via San Carlo,,"Centro parrocchiale ""Don Vittorio Branca""",,,,,,community_centre,,,,,,,,,POINT (8.952080726623535 45.594173431396484),node,,,,,
408,0.0,8.91809,8390270042,1615634668,45.596462,"{""contact:email"":""info@melarido.it"",""contact:facebook"":""https://www.facebook.com/teatrotirinnanzilegnano"",""contact:mobile"":""+39 349 8409911"",""contact:website"":""http://www.teatrotirinnanzilegnano.it/"",""wikidata"":""Q24510464"",""wikimedia_commons"":""Category:Teatro citt\u00E0 di Legnano""}",2,Legnano,,4A,,20025,Piazza Quattro Novembre,,Teatro Città di Legnano - Talisio Tirinnanzi,,,,,,theatre,,,,,,,1929,it:Teatro città di Legnano,POINT (8.918089866638184 45.59646224975586),node,,,,,
409,0.0,8.9622965,8418827851,1637662709,45.569675,"{""community_centre"":""parish_hall"",""denomination"":""roman_catholic"",""facebook"":""https://www.facebook.com/Oratorio-San-Lorenzo-e-Sebastiano-418691701660701/"",""operator:type"":""religious"",""religion"":""christian""}",2,San Lorenzo,,,,20015,,,Oratorio di San Lorenzo,,Parrocchia di San Lorenzo,,,,community_centre,,,,,,,,,POINT (8.962296485900879 45.56967544555664),node,,,,,
410,0.0,9.382955,8448742563,1614072050,45.54881,"{""lit"":""yes""}",1,,,,,,,,,,,,,,fountain,,splash_pad,,,,,,,POINT (9.382954597473145 45.54880905151367),node,,,,,
411,0.0,8.948306,8474963513,1614590132,45.601055,"{""brand"":""The Space Cinema"",""brand:wikidata"":""Q3989406"",""brand:wikipedia"":""it:The Space Cinema"",""cinema:3D"":""yes"",""contact:email"":""multicinema.cerro@thespacecinema.it"",""contact:website"":""https://www.thespacecinema.it/i-nostri-cinema/cerro-maggiore/al-cinema"",""drive_in"":""no"",""level"":""2"",""old_name"":""Move In"",""open_air"":""no"",""screen"":""11""}",1,Cerro Maggiore,IT,72,,20023,Via Filippo Turati,,The Space Cinema,,,,,,cinema,,,,,,,,,POINT (8.9483060836792 45.60105514526367),node,,,,,
412,0.0,8.913138,8485185079,1614846712,45.56397,"{""community_centre:for"":""senior""}",1,Canegrate,,114A,,20039,Via Giuseppe Garibaldi,,Centro anziani,,,,,,community_centre,,,,,,,,,POINT (8.913138389587402 45.563968658447266),node,,,,,
413,0.0,9.065962,8513492856,1634156142,45.55228,"{""lit"":""no""}",2,,,,,,,,,,,,,,public_bookcase,,,,,,,,,POINT (9.065961837768555 45.55228042602539),node,,,,,
414,0.0,8.923737,8599878330,1617727332,45.568245,"{""access"":""yes"",""brand"":""Little Free Library"",""brand:wikidata"":""Q6650101"",""brand:wikipedia"":""en:Little Free Library"",""covered"":""yes"",""indoor"":""no"",""lit"":""no"",""public_bookcase:type"":""wooden_cabinet"",""wheelchair"":""yes""}",1,,,,,,,,Little Free Library,24/7,,,,,public_bookcase,,,,,,,2017-12-03,,POINT (8.923736572265625 45.56824493408203),node,,,,,
415,0.0,9.181402,8622691767,1618246339,45.441555,,1,Milano,,60,,20141,Via Francesco Brioschi,,Fabbrica dell'esperienza,,,+39 02 78624438,,http://www.fabbricaesperienza.it/,theatre,,,,,,,,,POINT (9.181402206420898 45.44155502319336),node,,,,,
416,0.0,9.323076,8643526530,1618834018,45.515785,,1,Cernusco sul Naviglio,,6,,20063,Via Don Lorenzo Milani,,Autitorium Paolo Maggioni,,,,,,conference_centre,,,,,,,,,POINT (9.323076248168945 45.515785217285156),node,,,,,
417,0.0,9.17716,8724139266,1620803738,45.500046,,1,,,,,,,,Nuovo Armenia,,,,,,community_centre,,,,,,,,,POINT (9.177160263061523 45.50004577636719),node,,,,,
418,0.0,9.218923,8726343124,1620852721,45.488014,"{""contact:city"":""Milano"",""contact:housenumber"":""13a"",""contact:postcode"":""20127"",""contact:street"":""Via Padova""}",1,,,,,,,,Bambù club,,,,,,nightclub,,,,,,,,,POINT (9.21892261505127 45.488014221191406),node,,,,,
419,0.0,9.528415,8733770425,1637233504,45.602802,,2,,,,,,,,,,,,,,fountain,no,,,,,,,,POINT (9.528414726257324 45.60280227661133),node,,,,,
420,0.0,9.519131,8825247595,1641680424,45.611195,,2,,,,,,,,,,,,,,fountain,no,bubbler,,,,,,,POINT (9.51913070678711 45.6111946105957),node,,,,,
421,0.0,9.235966,8845836850,1624022091,45.508713,,1,Milano,,,,20128,Via Ponte Nuovo,,Tac Teatro,,,,,,theatre,,,,,,,,,POINT (9.235965728759766 45.50871276855469),node,,,,,
422,0.0,9.20429,8858110829,1624399292,45.435135,,1,,,,,,,,El Mawal,,,,,,nightclub,,,,,,,,,POINT (9.204290390014648 45.43513488769531),node,,,,,
423,0.0,9.237397,8863519892,1624549335,45.50445,"{""studio"":""television""}",1,Milano,,14,,20127,Via privata Giovacchino Belli,,SportItalia,,,+39 366 5686213,,,studio,,,,,,,,,POINT (9.237397193908691 45.504451751708984),node,,,,,
424,0.0,9.332279,8864288346,1624570735,45.396362,,1,,,,,,,,Teatro Mediglia,,,,,,theatre,,,,,,,,,POINT (9.332279205322266 45.3963623046875),node,,,,,
425,0.0,9.183822,8868217577,1624721343,45.49734,,1,,,,,,,,,,,,,,fountain,,,,,,,,,POINT (9.183821678161621 45.49734115600586),node,,,,,
426,0.0,9.221095,8900916012,1625659382,45.47533,,1,,,,,,,,747,,,,,,nightclub,,,,,,,,,POINT (9.221095085144043 45.4753303527832),node,,,,,
427,0.0,9.52888,8929081401,1626540721,45.601746,,1,,,,,,,,,,,,,,fountain,no,,,,,,,,POINT (9.52888011932373 45.60174560546875),node,,,,,
428,0.0,9.07585,8938471883,1634214012,45.55585,"{""lit"":""no""}",3,,,,,,,,,,,,,,fountain,no,,,,,,,,POINT (9.075849533081055 45.555850982666016),node,,,,,
429,0.0,9.216916,8954771224,1627406837,45.48768,,1,,,,,,,,Lucky Ville,,,,,,gambling,,,,,,,,,POINT (9.21691608428955 45.48767852783203),node,,,,,
430,0.0,9.081836,8959477649,1634555862,45.55714,"{""air_conditioning"":""yes"",""indoor"":""yes""}",2,Arese,,7,,20044,Via Monviso,,Auditorium del Centro Civico Agorà,,,,,,theatre,,,,,,,,,POINT (9.081835746765137 45.5571403503418),node,,,,,
431,0.0,9.081974,8959477664,1636744702,45.556973,,3,,,,,,,,Anfiteatro,,,,,,theatre,,,,,,,,,POINT (9.081974029541016 45.55697250366211),node,,,,,
432,0.0,8.973484,9042138662,1630116926,45.552578,,1,,,,,,,,,,,,,,fountain,,,,,,,,,POINT (8.97348403930664 45.55257797241211),node,,,,,
433,0.0,9.206486,9104921019,1632041266,45.47931,,1,,,,,,,,,,,,,,fountain,,,,,,,,,POINT (9.206485748291016 45.47930908203125),node,,,,,
434,0.0,9.2290535,9214272541,1635685627,45.502594,"{""addr:unit"":""5"",""studio"":""video""}",1,,,34,,20127,Via Stamira D'Ancona,,Studio Ferrante Aporti,,,,,https://www.studioferranteaporti.it,studio,,,,,,,,,POINT (9.229053497314453 45.502593994140625),node,,,,,
435,0.0,9.103266,9216570241,1636564436,45.506653,,2,Milano,,3,,20151,Via Pier Paolo Pasolini,,Cascina Merlata - Community Center,Mo-Su 07:00-00:00,,+3902880001341,,http://www.cascina-merlata.net/,community_centre,,,,,,,,,POINT (9.103265762329102 45.50665283203125),node,,,,,
436,0.0,9.076672,9238847995,1643837042,45.556087,"{""community_centre"":""youth_centre"",""level"":""-1"",""short_name"":""Oratorio di MAC"",""wheelchair"":""yes""}",7,Arese,,27,,20044,Via Giacomo Matteotti,,Oratorio dei Santi Domenico e Laura,,,,,,community_centre,,,,,,,,,POINT (9.076671600341797 45.556087493896484),node,,,,,
437,0.0,9.113416,9243548739,1636637487,45.542244,"{""note"":""frequency: 101.7 mHz"",""short_name"":""RCB""}",1,Bollate,,1,,20021,Piazza San Martino,,Radio Città Bollate,,,+390282398510,,https://www.rcbradio.it/,studio,,,,,,,,,POINT (9.113415718078613 45.54224395751953),node,,,,,
438,0.0,9.088227,9243548782,1640807528,45.571293,"{""note"":""frequency: 96.3 mHz"",""studio"":""radio""}",2,Garbagnate Milanese,,98,,20024,Via Alessandro Volta,,Radio Panda 96.3,Mo-Fr 09:00-18:00; Sa 09:00-12:30; Su off,,+39029959888,,http://www.radiopanda.it,studio,,,,,,,,,POINT (9.088227272033691 45.571292877197266),node,,,,,
439,0.0,9.179991,9264214754,1637248099,45.45953,,1,,,,,,,,Teatro Arsenale,,,,,https://www.teatroarsenale.it/,theatre,,,,,,,,,POINT (9.179990768432617 45.459529876708984),node,,,,,
440,0.0,9.07809,9280671823,1639769301,45.549744,"{""air_conditioning"":""yes"",""payment:cash"":""yes"",""payment:credit_cards"":""yes"",""screen"":""1"",""toilets"":""yes"",""wheelchair"":""limited""}",2,Arese,,4,,20044,Piazza Carlo Alberto dalla Chiesa,,Cinema Teatro Arese,,,+39029380390,,http://www.cinemateatroarese.it/,cinema,,,,,,,,,POINT (9.078089714050293 45.54974365234375),node,,,,,
441,0.0,9.176752,9295827080,1638269829,45.448986,,1,,,,,,,,Sixth Sense,,,,,https://sixthsensemilano.wixsite.com/nightclub,stripclub,,,,,,,,,POINT (9.176752090454102 45.4489860534668),node,,,,,
442,0.0,9.075768,9301008856,1638382325,45.562298,,1,,,,,,,,,,,,,,fountain,,,,,,,,,POINT (9.07576847076416 45.56229782104492),node,,,,,
443,0.0,9.20833,9307542092,1638490326,45.454124,"{""screen"":""1""}",1,Milano,,6,,20135,Via Seneca,,Il Cinemino,,,,,https://ilcinemino.it,cinema,,,,,,,,,POINT (9.208330154418945 45.454124450683594),node,,,,,
444,0.0,9.155357,9345859415,1639733097,45.38142,,1,,,,,,,,Sala Slot,,,,,,gambling,,,,,,,,,POINT (9.155357360839844 45.38142013549805),node,,,,,
445,0.0,9.176831,9346505544,1639750416,45.447758,,1,,,,,,,,Solidarietà In... Ternazionale,,,+39 02 58114981,,,social_centre,,,,,,,,,POINT (9.176831245422363 45.447757720947266),node,,,,,
446,0.0,9.074369,9347169048,1639766493,45.56853,"{""community_centre"":""youth_centre"",""network"":""Oratori di Garbagnate"",""network:website"":""https://sites.google.com/oratorigarbagnate.com/"",""short_name"":""SMR""}",1,,,,,,,,Oratorio San Giuseppe,Tu-Su 16:00-19:00,,,https://sites.google.com/oratorigarbagnate.com/home/chi-siamo,,community_centre,,,,,,,,,POINT (9.074369430541992 45.56853103637695),node,,,,,
447,0.0,9.060154,9347169071,1639766493,45.573982,"{""community_centre"":""youth_centre"",""network"":""Oratori di Garbagnate"",""network:website"":""https://sites.google.com/oratorigarbagnate.com/"",""short_name"":""SGA""}",1,,,,,,,,Oratorio San Carlo,Tu-Su 16:00-19:00,,,https://sites.google.com/oratorigarbagnate.com/home/chi-siamo,,community_centre,,,,,,,,,POINT (9.06015396118164 45.57398223876953),node,,,,,
448,0.0,9.080057,9349691367,1639866988,45.577374,,1,,,,,,,,,,,,,,fountain,,,,,,,,,POINT (9.080057144165039 45.57737350463867),node,,,,,
449,0.0,9.082823,9352323012,1639995644,45.553635,"{""facebook"":""https://www.facebook.com/radiowebarese/"",""instagram"":""radiowebarese"",""studio"":""radio""}",1,,,,,,,,Radioweb Arese,,,,,https://radiowebarese.it/,studio,,,,,,,,,POINT (9.082822799682617 45.55363464355469),node,,,,,
450,0.0,9.160144,9379924206,1640887441,45.452854,,1,,,,,,,,Cinema Mexico,,,,,https://www.angelos.it/,cinema,,,,,,,,,POINT (9.160143852233887 45.45285415649414),node,,,,,
451,0.0,9.109371,9386578405,1641157043,45.471077,,1,,,,,,,,Spazio Teatro 89,,,,,,theatre,,,,,,,,,POINT (9.109371185302734 45.47107696533203),node,,,,,
452,0.0,9.144032,9396904244,1641992567,45.445072,"{""studio"":""audio"",""survey:date"":""2022-01-05"",""wikidata"":""Q7079619""}",2,,,,,,,,Officine Meccaniche,,,,,,studio,,,,,,,,,POINT (9.144031524658203 45.445072174072266),node,,,,,
453,0.0,9.126795,9415211251,1642072068,45.44734,,1,,,,,,,,Bingo Azzurro,,,,,https://bingo-azzurro.business.site/,gambling,,,bingo,,,,,,POINT (9.126794815063477 45.44733810424805),node,,,,,
454,0.0,9.113269,9415855489,1642090283,45.5426,"{""community_centre"":""youth_centre"",""toilets"":""yes""}",1,,,,,,,,Oratorio San Filippo Neri,,Parrocchia San Martino,,,,community_centre,,,,,,,,,POINT (9.113268852233887 45.542598724365234),node,,,,,
455,0.0,9.26484,9433424893,1642680792,45.415142,,1,San Donato Milanese,,,,20097,Piazza delle Arti,,Sala Matrimoni,,Comune di San Donato Milanese,,,,events_venue,,,,wlan,,,,,POINT (9.264840126037598 45.41514205932617),node,,,,,
456,0.0,9.041667,9439921458,1642873011,45.52646,,1,,,,,,,,,,,,,,public_bookcase,,,,,,,,,POINT (9.041666984558105 45.526458740234375),node,,,,,
457,0.0,9.04149,9439921509,1642873011,45.526455,"{""facebook"":""https://www.facebook.com/CincittaRho"",""screen"":""1""}",1,Rho,,20,,20017,Viale Filippo Meda,rho@barzandhippo.com,Cin&Città Rho,,,+390295339774,https://bandhi.it/bah/wp_theatre_season/cincitta/,,cinema,,,,,,,,,POINT (9.041489601135254 45.52645492553711),node,,,,,
458,0.0,9.104431,9444436390,1643022332,45.61284,"{""community_centre"":""youth_centre"",""denomination"":""roman_catholic"",""religion"":""christian""}",1,,,,,,,,Oratorio San Domenico Savio,,,,,,community_centre,,,,,,,,,POINT (9.10443115234375 45.61283874511719),node,,,,,
459,0.0,9.062742,9467136660,1643749907,45.574863,,1,Garbagnate Milanese,,10,,20024,Via Stelvio,,Centro polifunzionale il Sole,,,,,,community_centre,,,,,,,,,POINT (9.062742233276367 45.57486343383789),node,,,,,
460,0.0,9.073116,9467136662,1643749907,45.565304,"{""community_centre"":""youth_centre"",""instagram"":""picchiorossogarbagnate"",""operator:type"":""public""}",1,Garbagnate Milanese,,29,,20024,Via Ceresio,,Il Picchio Rosso,"Mo,We 15:00-18:00; Tu,Th-Su off",,+39029954118,,,community_centre,,,,,,,,,POINT (9.073116302490234 45.565303802490234),node,,,,,
461,,,4497863,1463256253,,"{""comment"":""address was previously as Piazza Piemonte"",""wikidata"":""Q3982067"",""contact:website"":""http://www.teatronazionale.it""}",9,Milano,IT,1,,,Via Giovanni Rota,,Teatro Nazionale,,,,,,theatre,,,,,,,,it:Teatro Nazionale (Milano),"POLYGON ((9.1542375 45.4666136, 9.1538033 45.4666407, 9.1537992 45.4666143, 9.1536399 45.4666355, 9.1536554 45.4669134, 9.154271 45.466871, 9.1542375 45.4666136))",way,,public,,,
462,,,4998830,1505458606,,"{""wikidata"":""Q371138""}",14,Milano,IT,1,,,Largo Antonio Greppi,info@piccoloteatro.org,Piccolo Teatro Strehler,,Piccolo Teatro,+39 02 42411889,,https://www.piccoloteatro.org/,theatre,,,,,,,,it:Piccolo Teatro (Milano),"POLYGON ((9.181887 45.4728483, 9.1819604 45.4725864, 9.1818671 45.472482, 9.1820195 45.4724107, 9.1820437 45.4723402, 9.1821575 45.4722867, 9.1821855 45.4722872, 9.1823676 45.4721967, 9.1823965 45.4722288, 9.1824537 45.4722922, 9.1825147 45.4722995, 9.1825613 45.4723472, 9.1827461 45.4725364, 9.1827267 45.4726277, 9.1826174 45.4726127, 9.1826113 45.4726344, 9.1827206 45.4726495, 9.1827144 45.4726715, 9.1826703 45.472829, 9.1823804 45.4727891, 9.1823726 45.4728169, 9.1825048 45.4728351, 9.1824783 45.4729298, 9.181887 45.4728483))",way,,public,,,
463,,,23313966,1496917359,,"{""wikidata"":""Q1131522"",""wheelchair"":""yes"",""toilets:wheelchair"":""yes""}",20,Milano,IT,20,,20125,Viale dell'Innovazione,,Teatro degli Arcimboldi,,,+ 39 02 641142200,,http://teatroarcimboldi.it/index.php,theatre,,,,,,,2002,it:Teatro degli Arcimboldi,"POLYGON ((9.2132157 45.5146133, 9.2135198 45.5143231, 9.2133709 45.5143127, 9.2134345 45.5139735, 9.2134923 45.5139768, 9.2135005 45.5139482, 9.2135995 45.5139367, 9.2137126 45.5139341, 9.213823 45.5139443, 9.2139427 45.5139653, 9.214051 45.5140029, 9.2140445 45.5140326, 9.2141024 45.5140379, 9.2140381 45.5143803, 9.2138954 45.514365, 9.2140679 45.5146979, 9.2139743 45.5147214, 9.2139391 45.5148681, 9.213808 45.5148821, 9.213671 45.5148769, 9.2136523 45.5149864, 9.2134968 45.5149714, 9.2135216 45.5148623, 9.2133942 45.5148405, 9.2132692 45.514804, 9.2132948 45.5146865, 9.2133014 45.5146563, 9.2132157 45.5146133))",way,,public,,,
464,,,23695552,1546952990,,"{""wikidata"":""Q3906237""}",16,Milano,IT,57,,20121,Corso Venezia,c.planetario@comune.milano.it,Planetario Ulrico Hoepli,,Comune di Milano,+39-02-88463340,,www.comune.milano.it/planetario/,planetarium,,,,,,,1930,it:Civico Planetario Ulrico Hoepli,"POLYGON ((9.2035451 45.473885, 9.2036374 45.4738787, 9.2037126 45.4738522, 9.2037757 45.4737808, 9.2037676 45.473745, 9.2038512 45.4737035, 9.2038038 45.4736604, 9.2037511 45.4736125, 9.203674 45.4736509, 9.2036292 45.4736236, 9.2034765 45.4736455, 9.2034066 45.4737208, 9.2034029 45.473791, 9.2034552 45.4738483, 9.2035451 45.473885))",way,,civic,,,
465,,,26143957,1519995667,,"{""mapillary"":""9gARIJ31V-UJWBcTj6-tiQ""}",2,,,,,,,,,,,,,,fountain,,,,,,,,,"POLYGON ((9.2243485 45.4781797, 9.2243485 45.4781044, 9.2245367 45.4781044, 9.2245367 45.4781797, 9.2243485 45.4781797))",way,,,,,
466,,,26612583,1513418785,,"{""wikidata"":""Q1049376""}",12,Milano,IT,2,,20121,Via San Giovanni sul Muro,,Teatro Dal Verme,,,+39 02 87905,,http://www.dalverme.org/,theatre,,,,,,,,it:Teatro Dal Verme,"POLYGON ((9.1808199 45.467076, 9.181061 45.4669963, 9.1811075 45.4670687, 9.1811704 45.4670715, 9.1813117 45.4670208, 9.1813773 45.4670344, 9.1814054 45.4670765, 9.1814566 45.4670595, 9.1814924 45.4671162, 9.1815271 45.467171, 9.1814787 45.4671861, 9.1815021 45.4672211, 9.181479 45.4672724, 9.1813112 45.46732, 9.1812928 45.4673549, 9.1813401 45.4674259, 9.1810957 45.4675061, 9.1810491 45.4674363, 9.1810023 45.467432, 9.1808637 45.4674832, 9.1807884 45.4674729, 9.1807441 45.467472, 9.1806905 45.467441, 9.1806344 45.467434, 9.180593 45.4673822, 9.1805283 45.4674012, 9.1804641 45.4673021, 9.1808224 45.4671777, 9.1808658 45.4671416, 9.1808199 45.467076))",way,,public,,,
467,,,26612693,1518692020,,"{""natural"":""water"",""tourism"":""attraction"",""wheelchair"":""yes""}",14,,,,,,,,Fontana di Piazza Castello,,,,,,fountain,,,,,,,,,"POLYGON ((9.1811831 45.4692315, 9.1811707 45.4692761, 9.1811417 45.4693167, 9.1810981 45.4693503, 9.1810431 45.4693745, 9.180981 45.4693873, 9.1809162 45.4693879, 9.1808536 45.4693762, 9.1807978 45.4693531, 9.1807529 45.4693203, 9.1807223 45.4692803, 9.1807083 45.4692359, 9.1807119 45.4691905, 9.1807327 45.4691475, 9.1807694 45.46911, 9.1808191 45.4690809, 9.1808782 45.4690622, 9.1809423 45.4690554, 9.1810066 45.469061, 9.1810664 45.4690786, 9.1811172 45.4691068, 9.1811553 45.4691436, 9.1811778 45.4691862, 9.1811831 45.4692315))",way,,,,,
468,,,27626227,1597744228,,"{""historic"":""yes"",""wikidata"":""Q839012""}",11,,,,,,,,Palazzo dei Giureconsulti,,,,,http://www.palazzogiureconsulti.it/,conference_centre,,,,,,,1562,it:Palazzo dei Giureconsulti,"POLYGON ((9.187468 45.465199, 9.1876756 45.4651169, 9.188004 45.4649904, 9.1880355 45.4649778, 9.1880778 45.4649607, 9.1883916 45.464841, 9.1884352 45.4649513, 9.1884044 45.4649937, 9.1877719 45.4652451, 9.1875735 45.4653201, 9.1875224 45.465261, 9.187468 45.465199))",way,,office,3,,
469,,,28116114,1409330715,,,2,,,,,,,,,,,,,,fountain,,,,,,,,,"POLYGON ((9.1820715 45.485113, 9.1821088 45.4851153, 9.1820961 45.4851642, 9.1820853 45.4851644, 9.1820748 45.4851645, 9.1820715 45.485113))",way,,,,,
470,,,28391975,1428790631,,,10,Cusano Milanino,IT,2B,,20095,Via Lauro,,Cineteatro Don Bosco,,,,,,theatre,,,,,,DbTR - Ingombro al suolo corpo edificato,,,"POLYGON ((9.192894 45.555898, 9.1928345 45.556017, 9.192775 45.556136, 9.192809 45.556145, 9.192789 45.556191, 9.1928695 45.5562105, 9.192948 45.5562295, 9.193048 45.556024, 9.193075 45.555965, 9.193084 45.555947, 9.192894 45.555898))",way,,yes,,,
471,,,29373820,1399314811,,"{""layer"":""1""}",4,,,,,,,,,,,,,,fountain,,,,,,,,,"POLYGON ((9.1826413 45.5509183, 9.1826436 45.550909, 9.1828185 45.5509307, 9.1828161 45.55094, 9.1826413 45.5509183))",way,,,,,
472,,,32502614,1497370799,,,3,,,,,,,,,,,,,,fountain,,,,,,,,,"POLYGON ((9.2099699 45.5392238, 9.2098374 45.5391733, 9.2098771 45.5391233, 9.2100045 45.5389628, 9.2099699 45.5392238))",way,,,,,
473,,,39749399,1640015651,,"{""club"":""religion""}",4,,,,,,,,,,,,,,community_centre,,,,,,,,,"POLYGON ((9.1977552 45.5083979, 9.197823 45.5085336, 9.1980731 45.5084743, 9.1980886 45.5085068, 9.1982505 45.508468, 9.1982337 45.5084345, 9.1985243 45.5083647, 9.1984608 45.5082288, 9.198079 45.5083203, 9.1978566 45.5083736, 9.1977552 45.5083979))",way,,yes,,,
474,,,41434773,1592053933,,"{""religion"":""christian"",""denomination"":""catholic""}",8,,,,,,,,Oratorio San Carlo,,,,,,community_centre,,,,,,,,,"POLYGON ((9.2368502 45.469867, 9.236985 45.4698668, 9.2371193 45.4698666, 9.2371195 45.4699457, 9.2370349 45.4699458, 9.237035 45.4700053, 9.2370654 45.4700053, 9.2370656 45.470093, 9.2370303 45.470093, 9.2370306 45.4702319, 9.2369912 45.470232, 9.2369916 45.4704061, 9.2368514 45.4704062, 9.2368512 45.4703213, 9.2368504 45.4699567, 9.2368502 45.469867))",way,,public,,,
475,,,42561709,1589015579,,,3,,,,,,,,Teatro del Parco Trotter,,,,,,theatre,,,,,,Regione Lombardia - La banca dati territoriali CTR10000 è prodotta da Regione Lombardia - Infrastruttura per l'Informazione Territoriale,,,"POLYGON ((9.2246869 45.4961887, 9.225006 45.4962285, 9.2249814 45.4963252, 9.224662 45.4962853, 9.2246677 45.4962627, 9.2246377 45.496259, 9.2246508 45.4962072, 9.2246812 45.496211, 9.2246869 45.4961887))",way,,public,,,
476,,,43061996,1391972207,,"{""water"":""reflecting_pool"",""natural"":""water""}",3,,,,,,,,,,,,,,fountain,,,,,,,,,"POLYGON ((9.1771732 45.4682533, 9.1769898 45.4681391, 9.1769623 45.4680695, 9.1773247 45.4680851, 9.1773504 45.4681339, 9.1771732 45.4682533))",way,,,,,
477,,,46427915,1495708120,,,6,Pioltello,,33,,20096,Via San Francesco,,UCI Cinemas Pioltello,,,,,https://www.ucicinemas.it/cinema/lombardia/milano/uci-cinemas-pioltello-milano/,cinema,,,,,,,,,"POLYGON ((9.3220247 45.5036042, 9.322197 45.5034853, 9.3223495 45.5033664, 9.3223852 45.5030657, 9.3223688 45.5027709, 9.3222 45.5024475, 9.3219722 45.5022718, 9.3216154 45.5022143, 9.321062 45.5022673, 9.3213245 45.5035453, 9.3216578 45.5035171, 9.3218357 45.5036024, 9.3218634 45.5036112, 9.3220247 45.5036042))",way,,yes,,,
478,,,50320195,1266185555,,,2,,,,,,,,Fontana Luce,,,,,,fountain,,,,,,survey,,,"POLYGON ((9.1684363 45.5458883, 9.1684481 45.5458403, 9.1682581 45.5458173, 9.1682462 45.5458653, 9.1684363 45.5458883))",way,,,,,
479,,,50320726,1266185554,,,1,,,,,,,,Fontana Gioco,,,,,,fountain,,,,,,survey,,,"POLYGON ((9.1680151 45.5470213, 9.1680609 45.5468498, 9.1677862 45.5468139, 9.1680151 45.5470213))",way,,,,,
