,changeset,lon,id,timestamp,lat,tags,version,addr:city,addr:housenumber,addr:postcode,addr:street,email,name,opening_hours,operator,phone,website,amenity,drinking_water,internet_access,start_date,theatre,wikipedia,geometry,osm_type,building,building:levels,gambling,source
0,0.0,13.346234,267186897,1211935000,38.124306,"{""created_by"":""Potlatch 0.9b""}",1,,,,,,Dante,,,,,cinema,,,,,,POINT (13.346234321594238 38.124305725097656),node,,,,
1,0.0,13.35697,268695044,1625922548,38.124676,,4,Palermo,160,90139,Via Emerico Amari,,Al Politeama Multisala,,,+39 091 274 7799,https://alpoliteama.it/,cinema,,,,,,POINT (13.356969833374023 38.12467575073242),node,,,,
2,0.0,13.368534,268957825,1489237027,38.116856,"{""wikidata"":""Q3982035""}",5,,,,,,Teatro Libero,,,,,theatre,,,,,it:Teatro Libero (Palermo),POINT (13.368534088134766 38.11685562133789),node,,,,
3,0.0,13.357327,268982152,1215443217,38.110912,"{""created_by"":""Potlatch 0.9c""}",2,,,,,,teatro delle Balate,,,,,theatre,,,,,,POINT (13.357327461242676 38.11091232299805),node,,,,
4,0.0,13.372366,268983537,1489237027,38.117058,"{""capacity"":""52"",""contact:email"":""spettacoli@teatroditirammu.it"",""contact:phone"":""+39 09 16177865"",""wikidata"":""Q3981962""}",5,,6,,Via Torremuzza,,Teatro Ditirammu,,,,http://teatroditirammu.it,theatre,,,1998,,it:Teatro Ditirammu,POINT (13.372365951538086 38.11705780029297),node,,,,
5,0.0,13.349232,271672159,1539357490,38.133118,"{""disused"":""yes""}",5,,,,,,Fiamma (non attivo dal 2015 ),,,,,cinema,,,,,,POINT (13.349231719970703 38.13311767578125),node,,,,
6,0.0,13.345546,277642730,1613673096,38.136837,,3,Palermo,5,90144,Via Luigi Pirandello,,Cinema Ariston,,,+39 091 625 8547,http://www.arlecchinoariston.it/,cinema,,,,,,POINT (13.345545768737793 38.136837005615234),node,,,,
7,0.0,13.446209,412327779,1614791317,38.076626,,3,,,,,,Cine Ambassador,,,,,cinema,,,,,,POINT (13.446208953857422 38.07662582397461),node,,,,
8,0.0,13.342863,573760497,1369169703,38.13083,,2,,,,,,Jolly,,,,,theatre,,,,,,POINT (13.342863082885742 38.130828857421875),node,,,,
9,0.0,13.345148,573760502,1614617799,38.130527,,4,Palermo,32,90141,Via Damiani Almeyda,,Cinema Gaudium,,,+39 091 341535,http://www.cinemagaudium.it/,cinema,,,,,,POINT (13.345148086547852 38.13052749633789),node,,,,
10,0.0,13.344897,573760503,1259445546,38.12965,,1,,,,,,Golden,,,,,cinema,,,,,,POINT (13.344897270202637 38.1296501159668),node,,,,
11,0.0,13.340811,618709524,1596636569,38.1069,"{""wheelchair"":""yes""}",7,Palermo,12,90129,Via Cuba,,Cinema Multisala Marconi,,,+39 091 421574,http://www.cinemarconipalermo.it,cinema,,,,,,POINT (13.340810775756836 38.10689926147461),node,,,,
12,0.0,14.043409,1510474903,1502558377,37.781982,,3,,,,,,,,,,,fountain,,,,,,POINT (14.04340934753418 37.781982421875),node,,,,
13,0.0,14.044402,1510485538,1321826553,37.78997,,2,,,,,,Anfiteatro,,,,,theatre,,,,,,POINT (14.044402122497559 37.78997039794922),node,,,,
14,0.0,13.569386,1523680869,1552381274,37.92231,,2,,,,,,,,,,,fountain,,,,,,POINT (13.569385528564453 37.92230987548828),node,,,,
15,0.0,14.087585,1834782149,1400754825,37.932487,,2,,,,,,,,,,,fountain,,,,,,POINT (14.08758544921875 37.93248748779297),node,,,,
16,0.0,13.51243,1871572712,1470344141,38.078873,,2,,,,,,,,,,,fountain,,,,,,POINT (13.512430191040039 38.07887268066406),node,,,,
17,0.0,14.143536,2264288543,1381916077,37.992336,,2,,,,,,Teatro Pietra Rosa,,,,,theatre,,,,,,POINT (14.143535614013672 37.99233627319336),node,,,,
18,0.0,14.161267,2264944540,1537955010,38.02019,,3,,,,,,,,,,,fountain,,,,,,POINT (14.161267280578613 38.02019119262695),node,,,,
19,0.0,14.158826,2264944806,1569003562,38.019215,,2,,,,,,Centro Sociale,,,,,community_centre,,,,,,POINT (14.158825874328613 38.01921463012695),node,,,,
20,0.0,13.448489,2408310543,1375740344,38.03221,,1,,,,,,Fontana Nova,,,,,fountain,,,1772,,,POINT (13.44848918914795 38.03221130371094),node,,,,
21,0.0,13.456062,2408892752,1375796279,37.96466,,1,,,,,,,,,,,fountain,,,,,,POINT (13.456062316894531 37.96466064453125),node,,,,
22,0.0,13.364968,2419100589,1489237061,38.11795,"{""wikidata"":""Q3747352""}",3,,,,,,Fontana del Garraffello,,,,,fountain,,,1591,,it:Fontana del Garraffello,POINT (13.364968299865723 38.117950439453125),node,,,,
23,0.0,14.005388,2460978648,1443358581,37.94255,,2,,,,,,,,,,,fountain,,,,,,POINT (14.005388259887695 37.94255065917969),node,,,,
24,0.0,13.333651,2505339869,1489237063,38.16074,"{""wikidata"":""Q3982335""}",3,,,,,,Teatro di Verdura,,,,,theatre,,,,,it:Teatro di Verdura,POINT (13.333650588989258 38.16073989868164),node,,,,
25,0.0,13.357908,2622791015,1516581912,38.119728,"{""wikidata"":""Q3982208""}",3,,,,,,al Massimo,,,,,theatre,,,,,it:Teatro al Massimo,POINT (13.357908248901367 38.119728088378906),node,,,,
26,0.0,13.318407,2678538138,1555881147,38.09741,"{""contact:email"":""ivanlaine@live.it"",""description"":""Composizione musicale per ogni stile ed esigenza e ampiezza; specialista nel settore elettronica, house, dance, pop, lounge, ambient, chill out, colonne sonore per cortometraggi; mastering, montaggio e ottimizzazione audio anche per clip video amatoriali"",""payment:bitcoin"":""yes"",""studio"":""audio""}",4,,,,,,Service Mastering And Editing Audio,,,,,studio,,,,,,POINT (13.31840705871582 38.097408294677734),node,,,,
27,0.0,13.885613,2942539216,1404246772,37.987606,,1,Campofelice di Roccella,38/A,90010,Viale della Provincia,,Arena Re,,,,,cinema,,,,,,POINT (13.885613441467285 37.987606048583984),node,,,,
28,0.0,13.884313,2945359750,1526238113,37.98587,"{""name:en"":""civil protection (O.N.V.G.I.)""}",2,,,,,,Protezione Civile (O.N.V.G.I.),,,,,community_centre,,,,,,POINT (13.884312629699707 37.985870361328125),node,,,,
29,0.0,13.292412,3074942331,1410614052,38.080486,,1,,,,,,,,,,,fountain,,,,,,POINT (13.292411804199219 38.08048629760742),node,,,,
30,0.0,13.280466,3141458027,1428067976,38.07715,,2,,,,,,acqua potabile,,,,,fountain,,,,,,POINT (13.280466079711914 38.0771484375),node,,,,
31,0.0,13.344447,3326954514,1456170300,38.099895,,2,,,,,,Teatro Gregotti (Ingresso),,,,,theatre,,,,,,POINT (13.344447135925293 38.09989547729492),node,,,,
32,0.0,13.332674,3483720080,1613556844,38.15222,,4,Palermo,111,90146,Via Ausonia,,Cinema King,,,+39 091 516121,https://www.cinecityking.it/,cinema,,,,,,POINT (13.332674026489258 38.1522216796875),node,,,,
33,0.0,13.332438,3483725518,1515916170,38.15056,,2,,,,,,RAI Sicilia,,,,,studio,,,,,,POINT (13.332438468933105 38.15055847167969),node,,,,
34,0.0,13.451776,3569942001,1569782480,38.03488,,2,,,,,,,,,,,fountain,,,,,,POINT (13.451775550842285 38.034881591796875),node,,,,
35,0.0,13.290805,3661355735,1437557567,38.08222,,1,,,,,,,,,,,fountain,,,,,,POINT (13.290804862976074 38.082218170166016),node,,,,
36,0.0,13.344295,3730965262,1614939172,38.1396,,3,Palermo,25,90144,Via Francesco Paolo di Blasi,,Cineteatro Lux,,,+39 091 784 2239,https://luxcineteatro.wixsite.com/luxcineteatro,cinema,,,,,,POINT (13.344294548034668 38.13959884643555),node,,,,
37,0.0,13.36918,3737686925,1441901131,38.117634,,1,,,,,,,,,,,fountain,,,,,,POINT (13.369179725646973 38.11763381958008),node,,,,
38,0.0,14.08986,3760253466,1443276273,37.928707,,1,,,,,,,,,,,fountain,,,,,,POINT (14.089859962463379 37.928707122802734),node,,,,
39,0.0,14.021813,3826590511,1545256852,38.038105,,4,Cefalù,65,90015,Corso Ruggero,info@cinemadifrancesca.it,Cinema Di Francesca,,,+39 0921923330,http://www.cinemadifrancesca.it,cinema,,,,,,POINT (14.02181339263916 38.03810501098633),node,,,,
40,0.0,13.291532,4141143789,1461344057,38.08122,,1,,,,,,,,,,,fountain,,,,,,POINT (13.291531562805176 38.08121871948242),node,,,,
41,0.0,13.369077,4169725549,1489237080,38.113987,"{""capacity"":""150"",""wikidata"":""Q3981995""}",2,,90,,Via Castrofilippo,,Teatro Garibaldi,,,,,theatre,,,1861,,it:Teatro Garibaldi (Palermo),POINT (13.3690767288208 38.11398696899414),node,,,,
42,0.0,13.357213,4171444798,1462620650,38.110928,,1,,5;7,,Via delle Balate,,Teatro delle Balate,,Associazione Liberiteatri,,,theatre,,,,,it:Teatro delle Balate,POINT (13.357213020324707 38.11092758178711),node,,,,
43,0.0,13.342101,4174359472,1462819381,38.126198,"{""contact:fax"":""+39 091 6828958"",""contact:phone"":""+39 091 6819122"",""ref:vatin"":""IT00644900821""}",1,,5/A,,Via Antonio Furitano,,Teatro Lelio,,,,http://teatrolelio.it,theatre,,,,,it:Teatro Lelio,POINT (13.342101097106934 38.126197814941406),node,,,,
44,0.0,13.358928,4187761113,1463335778,38.11676,,1,,,,,,I Candelai,,,,,nightclub,,,,,,POINT (13.358927726745605 38.11676025390625),node,,,,
45,0.0,13.367877,4203987517,1489237080,38.11853,"{""artist_name"":""Antonello Gagini"",""wikidata"":""Q3747381""}",2,,,,,,Fontana della Doganella,,,,,fountain,,,1526,,it:Fontana della Doganella,POINT (13.367877006530762 38.1185302734375),node,,,,
46,0.0,13.361291,4290439591,1517219285,38.115726,,5,,,,,,,,,,,fountain,,,,,,POINT (13.36129093170166 38.115726470947266),node,,,,
47,0.0,13.361519,4290439592,1517219285,38.11581,,3,,,,,,,,,,,fountain,,,,,,POINT (13.361518859863281 38.11581039428711),node,,,,
48,0.0,13.361628,4290493990,1517219285,38.11564,,3,,,,,,,,,,,fountain,,,,,,POINT (13.361627578735352 38.115638732910156),node,,,,
49,0.0,13.3614025,4290518689,1517219285,38.115555,,3,,,,,,,,,,,fountain,,,,,,POINT (13.36140251159668 38.11555480957031),node,,,,
50,0.0,14.108948,4382398293,1521843708,37.795586,,2,,,,,,,,,,,fountain,,,,,,POINT (14.10894775390625 37.79558563232422),node,,,,
51,0.0,14.107504,4382407791,1615449324,37.79734,,2,,,,,,,,,,,fountain,,,,,,POINT (14.107503890991211 37.797340393066406),node,,,,
52,0.0,13.601467,4395444098,1648130246,37.67759,"{""tourism"":""attraction""}",3,,,,,,Fonte Rabato,,,,,fountain,,,,,,POINT (13.60146713256836 37.677589416503906),node,,,,
53,0.0,13.330375,4510130190,1479546629,38.147522,"{""name:en"":""A.s.d. Club Scherma Palermo"",""name:it"":""A.s.d. Club Scherma Palermo""}",1,,60,90144,Via dei Nebrodi,info@clubschermapalermo.org,A.s.d. Club Scherma Palermo,Mo-Fr 16:30-20:30,,0912523040,http://www.clubschermapalermo.org,community_centre,,wlan,,,,POINT (13.330374717712402 38.14752197265625),node,,,,
54,0.0,13.366858,4653847198,1646583508,38.11054,,2,,,,,,,,,,,fountain,,,,,,POINT (13.366857528686523 38.110538482666016),node,,,,
55,0.0,13.366411,4654080192,1646583508,38.11033,,2,,,,,,,,,,,fountain,,,,,,POINT (13.366411209106445 38.110328674316406),node,,,,
56,0.0,13.349975,4654147690,1485982259,38.133667,,1,,,,,,,,,,,fountain,,,,,,POINT (13.349974632263184 38.1336669921875),node,,,,
57,0.0,13.330318,4654147789,1485982257,38.12938,,1,,,,,,,,,,,fountain,,,,,,POINT (13.330318450927734 38.12937927246094),node,,,,
58,0.0,13.4470625,4703652590,1487946476,38.07557,"{""name:it"":""La racchetta""}",1,,,,Viale Europa,,La racchetta,Mo-Su 09:00-00:00,,,,community_centre,,,,,,POINT (13.447062492370605 38.07556915283203),node,,,,
59,0.0,13.884583,4709481089,1526236992,37.992016,,2,,,,,,,,,,,fountain,,,,,,POINT (13.884583473205566 37.99201583862305),node,,,,
60,0.0,13.301588,4814398802,1591030644,37.811897,,2,,,,,,,,,,,fountain,,,,,,POINT (13.30158805847168 37.81189727783203),node,,,,
61,0.0,13.51425,4866215899,1510776628,38.079716,,2,,,,,,Nuovo Capitol,,,,,cinema,,,,,,POINT (13.514249801635742 38.079715728759766),node,,,,
62,0.0,13.514301,4866215901,1510776628,38.079514,,2,,,,,,cineteatro multisala Roma,,,,,cinema,,,,,,POINT (13.514301300048828 38.07951354980469),node,,,,
63,0.0,13.039073,4866804364,1495310060,38.067215,,1,,,,,,,,,,,fountain,,,,,,POINT (13.03907299041748 38.06721496582031),node,,,,
64,0.0,13.036556,4866804391,1495310061,38.067074,,1,,,,,,,,,,,fountain,,,,,,POINT (13.036556243896484 38.067073822021484),node,,,,
65,0.0,13.038646,4920563412,1497706223,38.067764,,1,,,,,,,,,,,fountain,,,,,,POINT (13.03864574432373 38.06776428222656),node,,,,
66,0.0,13.331194,5259935321,1512222091,38.1684,,1,,,,,,,,,,,fountain,,,,,,POINT (13.331193923950195 38.168399810791016),node,,,,
67,0.0,13.379037,5326724445,1515392938,37.68144,,1,,,,,,,,,,,fountain,,,,,,POINT (13.379036903381348 37.68143844604492),node,,,,
68,0.0,13.354855,5338189585,1598806500,38.108356,,2,,,,,,,,,,,fountain,,,,,,POINT (13.354854583740234 38.10835647583008),node,,,,
69,0.0,13.358126,5353578164,1613573043,38.119812,,3,Palermo,8,90134,Piazza Giuseppe Verdi,,Cinema Rouge et noir,,,+39 091 324651,https://www.rougeetnoirpalermo.it/,cinema,,,,,,POINT (13.358125686645508 38.11981201171875),node,,,,
70,0.0,13.355466,5382009321,1517620716,38.118217,,1,,,,,,,,,,,fountain,,,,,,POINT (13.35546588897705 38.11821746826172),node,,,,
71,0.0,13.359484,5448178907,1519994524,38.121326,,1,,,,,,President,,,,,casino,,,,,,POINT (13.35948371887207 38.1213264465332),node,,,,
72,0.0,13.509124,5469824430,1520713108,38.079205,,1,,,,,,Nuovo Excelsior,,,,,cinema,,,,,,POINT (13.509123802185059 38.07920455932617),node,,,,
73,0.0,13.355503,5476722170,1520984374,38.115852,,1,,,,,,Timeless,,,,,nightclub,,,,,,POINT (13.35550308227539 38.11585235595703),node,,,,
74,0.0,13.083693,5481176759,1571761752,38.151367,,2,,,,,,,,,,,fountain,,,,,,POINT (13.08369255065918 38.1513671875),node,,,,
75,0.0,13.430386,5588829501,1525106602,38.09689,,1,,,,,,"Anfiteatro ""Teatro del Sole""",,,,,theatre,,,,,,POINT (13.43038558959961 38.09688949584961),node,,,,
76,0.0,13.935516,6063427074,1610638613,37.92297,,2,,,,,,,,,,,fountain,,,,,,POINT (13.935516357421875 37.922969818115234),node,,,,
77,0.0,13.941575,6063818080,1542293864,37.924995,,1,,,,,,,,,,,fountain,,,,,,POINT (13.941575050354004 37.92499542236328),node,,,,
78,0.0,13.158311,6186210572,1546708569,37.83884,,1,,,,,,,,,,,theatre,,,,,,POINT (13.158310890197754 37.83884048461914),node,,,,
79,0.0,13.346746,6302986138,1613739320,38.145172,,3,Palermo,12,90143,Via Imperatore Federico,,Cine Arlecchino,,,+39 091 362660,http://arlecchinoariston.it/,cinema,,,,,,POINT (13.346746444702148 38.145172119140625),node,,,,
80,0.0,13.469469,6359438195,1553472135,38.087242,,1,,97,90010,Via Roma,,Cine Odeon,,,,,cinema,,,,,,POINT (13.46946907043457 38.087242126464844),node,,,,
81,0.0,13.300981,6449596965,1561406430,37.812626,,2,,,,,,,,,,,fountain,,,,,,POINT (13.300980567932129 37.812625885009766),node,,,,
82,0.0,13.269636,6472895607,1569623037,37.676846,,2,,,,,,,,,,,fountain,,,,,,POINT (13.269636154174805 37.67684555053711),node,,,,
83,0.0,13.937367,6539008578,1592237976,37.92241,,2,,,,,,,,,,,fountain,,,,,,POINT (13.93736743927002 37.92240905761719),node,,,,
84,0.0,13.359311,6558498885,1631985276,38.12081,"{""name:es"":""Teatro de Marionetas"",""name:it"":""Teatro dei Pupi""}",2,,95,90133,Via Bara All'Olivella,pupi@figlidartecuticchio.com,Teatro dei Pupi,Sa-Su 18:30-22:00,,+39091323400,http://www.figlidartecuticchio.com,theatre,,,,,,POINT (13.3593111038208 38.120811462402344),node,,,,
85,0.0,14.021596,6754237789,1567025009,38.0354,,1,,,,,,,,,,,fountain,no,,,,,POINT (14.02159595489502 38.035400390625),node,,,,
86,0.0,13.316128,6807303685,1568878378,38.160645,,1,,,,,,Fabric,,,,,nightclub,,,,,,POINT (13.31612777709961 38.16064453125),node,,,,
87,0.0,13.281572,6848173864,1570121063,38.210888,"{""theatre:type"":""amphi""}",1,,,,,,,,,,,theatre,,,,,,POINT (13.281572341918945 38.21088790893555),node,,,,
88,0.0,13.3562765,6860429485,1619175401,38.113266,"{""name:en"":""puppet""}",2,,,,,,puppet,,,,,theatre,,,,,,POINT (13.356276512145996 38.11326599121094),node,,,,
89,0.0,13.339604,6898396486,1571498904,38.117508,,1,,,,,,Cantieri culturali Zisa,,,,,community_centre,,,,,,POINT (13.339604377746582 38.11750793457031),node,,,,
90,0.0,13.340868,7132143184,1614758306,38.141647,,4,Palermo,38,90144,Via Giorgio Boris Giuliano,,Cityplex Tiffany,,,+39 091 307006,https://cityplexpalermo.it/,cinema,,,,,,POINT (13.34086799621582 38.14164733886719),node,,,,
91,0.0,13.325654,7132152499,1614871980,38.157032,,2,Palermo,358,90146,Viale Strasburgo,,Cityplex Metropolitan,,,+39 091 688 7513,https://cityplexpalermo.it/,cinema,,,,,,POINT (13.325654029846191 38.15703201293945),node,,,,
92,0.0,13.358383,7142303570,1614872151,38.081978,,3,Palermo,7,90125,Via Rossa Guido,,Cineteatro Colosseum,,,+39 091 442265,https://cineteatrocolosseum.wixsite.com/colosseum,cinema,,,,yes,,POINT (13.358383178710938 38.08197784423828),node,,,,
93,0.0,13.412509,7142313335,1579424821,38.090282,,1,Palermo,,90124,Via Filipo Pecoraino,,UCI Cinemas Palermo,,,892960,https://www.ucicinemas.it/cinema/sicilia/palermo/uci-cinemas-palermo/,cinema,,,,,,POINT (13.412508964538574 38.09028244018555),node,,,,
94,0.0,13.289792,7142329394,1611148484,38.187042,,4,Palermo,177,90147,Via Tommaso Natale,,Cinema Multisala Aurora,,,+39 091 533192,http://www.cinaurora.it/,cinema,,,,,,POINT (13.28979206085205 38.187042236328125),node,,,,
95,0.0,13.4818325,7232832195,1582292159,37.906223,,1,,,,,,,,,,,fountain,,,,,,POINT (13.481832504272461 37.90622329711914),node,,,,
96,0.0,13.482183,7232832209,1582292159,37.90606,,1,,,,,,,,,,,fountain,,,,,,POINT (13.482183456420898 37.90605926513672),node,,,,
97,0.0,13.22366,7359372901,1585843049,37.906948,,1,,,,,,,,,,,fountain,,,,,,POINT (13.223660469055176 37.90694808959961),node,,,,
98,0.0,13.141361,8058859328,1603884682,38.17345,,1,,,,,,,,,,,fountain,,,,,,POINT (13.141361236572266 38.1734504699707),node,,,,
99,0.0,13.025286,8514692156,1615657652,38.002174,,1,,,,,,,,,,,fountain,,,,,,POINT (13.025285720825195 38.002174377441406),node,,,,
100,0.0,14.092579,8544466827,1616340400,37.807034,,1,,,,,,,,,,,fountain,,,,,,POINT (14.092578887939453 37.80703353881836),node,,,,
101,0.0,13.446929,8591988881,1617526385,38.076206,"{""studio"":""audio""}",1,Villabate,493,90039,Corso Vittorio Emanuele,,Armani Music,,,,,studio,,,,,,POINT (13.446928977966309 38.07620620727539),node,,,,
102,0.0,13.512736,8892451515,1625406473,38.09235,,1,,,,,,,,,,,fountain,no,,,,,POINT (13.512736320495605 38.092350006103516),node,,,,
103,0.0,13.350135,9580439337,1647344708,38.111237,,1,,81,,,,Eurobet,,,,,gambling,,,,,,POINT (13.35013484954834 38.111236572265625),node,,,,
104,0.0,13.605012,9603361621,1648130246,37.679127,"{""tourism"":""attraction""}",1,,,,,,Fonte Regio,,,,,fountain,,,1567,,,POINT (13.605011940002441 37.67912673950195),node,,,,
105,0.0,13.607112,9603361623,1648130246,37.680843,"{""alt_name"":""La Vasca"",""tourism"":""attraction""}",1,,,,,,Fonte Kassar,,,,,fountain,yes,,,,,POINT (13.607111930847168 37.680843353271484),node,,,,
106,,,24937131,1645635559,,"{""alt_name"":""Teatro Massimo"",""capacity"":""3500"",""internet_access:fee"":""no"",""internet_access:ssid"":""Wifi libero del Comune di Palermo"",""name:it"":""Teatro Massimo Vittorio Emanuele"",""name:ko"":""\uB9C8\uC2DC\uBAA8 \uBE44\uD1A0\uB9AC\uC624 \uC5D0\uB9C8\uB204\uC5D8\uB808 \uADF9\uC7A5"",""name:ru"":""\u0422\u0435\u0430\u0442\u0440 \u041C\u0430\u0441\u0441\u0438\u043C\u043E"",""name:zh"":""\u6232\u9662"",""ref:vatin"":""IT00262030828"",""tourism"":""attraction"",""wikidata"":""Q261439""}",17,Palermo,,90138,Piazza Giuseppe Verdi,,Teatro Massimo Vittorio Emanuele,Tu-Su 10:00-15:00,,+39 091 605 3521,http://www.teatromassimo.it/,theatre,,wlan,,,it:Teatro Massimo Vittorio Emanuele,"POLYGON ((13.3577084 38.1204757, 13.3575902 38.1204298, 13.3574658 38.1206279, 13.3573194 38.1205711, 13.3573572 38.1205109, 13.3571849 38.120444, 13.357138 38.1205013, 13.3570756 38.1205281, 13.3570019 38.1205274, 13.3569308 38.1205006, 13.3568857 38.1204406, 13.3568853 38.1203671, 13.3569146 38.120314, 13.3567381 38.1202396, 13.3566854 38.120317, 13.3565186 38.1202467, 13.3566165 38.1201028, 13.3564368 38.1200271, 13.3566116 38.1197703, 13.3567838 38.1198429, 13.3568809 38.1197003, 13.357033 38.1197644, 13.3569893 38.1198285, 13.357164 38.1199021, 13.3571962 38.1198548, 13.3572562 38.1198254, 13.3573415 38.1198267, 13.3574125 38.1198535, 13.3574485 38.1198912, 13.3574681 38.1199459, 13.3574319 38.1200035, 13.3576393 38.1200841, 13.3576734 38.1200298, 13.3577974 38.120078, 13.3576811 38.1202633, 13.3578102 38.1203134, 13.3577084 38.1204757))",way,yes,,,
107,,,30877778,1572455277,,"{""alt_name"":""Teatro Politeama"",""name:ko"":""\uD3F4\uB9AC\uD14C\uC544\uB9C8 \uAC00\uB9AC\uBC1C\uB514"",""wheelchair"":""yes"",""wikidata"":""Q1478356""}",11,,,,,,Politeama Garibaldi,,,,,theatre,,,,,it:Teatro Politeama (Palermo),"POLYGON ((13.3567277 38.1249305, 13.3566902 38.1249158, 13.3566503 38.1249059, 13.356609 38.1249012, 13.3565673 38.1249018, 13.3565262 38.1249075, 13.3564868 38.1249184, 13.3564501 38.124934, 13.356417 38.124954, 13.3563661 38.124932, 13.3562847 38.1250588, 13.3563336 38.1250777, 13.3563311 38.1251045, 13.356333 38.1251313, 13.3563394 38.1251578, 13.35635 38.1251833, 13.3563649 38.1252075, 13.3563836 38.12523, 13.3564059 38.1252504, 13.3564314 38.1252683, 13.3564596 38.1252835, 13.3564902 38.1252956, 13.3564582 38.1253449, 13.3568886 38.1255181, 13.3569283 38.1254571, 13.3570156 38.1254922, 13.3572378 38.1251505, 13.3571465 38.1251138, 13.357191 38.1250453, 13.3567646 38.1248737, 13.3567277 38.1249305))",way,yes,,,
108,,,34356845,1456170321,,"{""note"":""Teatro coperto con estensione ed anfiteatro su area esterna""}",5,,,,,,Teatro Gregotti,,"Facoltà di Lettere, Università degli Studi di Palermo",,,theatre,,,,,,"POLYGON ((13.3440563 38.0999844, 13.3439603 38.0999038, 13.3440367 38.0998559, 13.3439075 38.0997265, 13.3439605 38.0996838, 13.3443246 38.0997043, 13.344394 38.0997641, 13.3442311 38.0998806, 13.3443392 38.0999813, 13.3441976 38.1000846, 13.344076 38.0999711, 13.3440563 38.0999844))",way,,,,
109,,,44333899,1643732368,,"{""theatre:type"":""amphi""}",2,,,,,,,,,,,theatre,,,,,,"POLYGON ((13.3484189 38.1033923, 13.3486419 38.1033962, 13.3486903 38.1033728, 13.3486988 38.1033308, 13.3488625 38.103227, 13.3487412 38.1031259, 13.3487379 38.1030349, 13.3487534 38.1030211, 13.3487555 38.1029896, 13.34873 38.1029629, 13.34861 38.1030328, 13.3486386 38.1030618, 13.3484709 38.1031682, 13.3484598 38.1031583, 13.3484254 38.1031822, 13.3484189 38.1033923))",way,,,,
110,,,44686836,1263046791,,,2,,,,,,Teatro delle Palme,,,,,theatre,,,,,,"POLYGON ((13.4422896 38.0774988, 13.4424073 38.0774342, 13.4424806 38.077372, 13.4423613 38.0771908, 13.4421393 38.0772621, 13.4422896 38.0774988))",way,,,,
111,,,71911794,1555935601,,,4,,,,,,Supercinema Bagheria,,,,,cinema,,,,,,"POLYGON ((13.5024601 38.0778952, 13.5025183 38.0775588, 13.5027678 38.0775855, 13.5027096 38.0779219, 13.5024601 38.0778952))",way,yes,4,,
112,,,73411229,1515722276,,"{""natural"":""water"",""water"":""basin""}",4,,,,,,Fontana della Sirenetta,,,,,fountain,,,,,,"POLYGON ((13.3265676 38.2076908, 13.3265468 38.2076851, 13.3265295 38.2076743, 13.3265177 38.2076598, 13.3265126 38.207643, 13.3265148 38.2076258, 13.3265241 38.2076101, 13.3265394 38.2075977, 13.326559 38.2075899, 13.3265808 38.2075875, 13.3266024 38.207591, 13.3266193 38.2075985, 13.3266327 38.2076095, 13.3266414 38.2076231, 13.3266448 38.2076381, 13.3266424 38.2076532, 13.3266346 38.2076672, 13.326622 38.2076788, 13.3266056 38.207687, 13.326587 38.2076911, 13.3265676 38.2076908))",way,,,,
113,,,86672126,1515456973,,"{""natural"":""water"",""water"":""basin""}",5,,,,,,,,,,,fountain,,,,,,"POLYGON ((13.3551196 38.1124439, 13.3551024 38.1124186, 13.3550964 38.1123903, 13.3551024 38.112362, 13.3551197 38.1123368, 13.3551464 38.1123173, 13.3551797 38.1123056, 13.355216 38.112303, 13.3552514 38.1123097, 13.3552822 38.1123251, 13.3553052 38.1123478, 13.3553175 38.1123751, 13.3553179 38.1124041, 13.3553061 38.1124316, 13.3552836 38.1124546, 13.3552528 38.1124706, 13.3552171 38.1124778, 13.3551804 38.1124753, 13.3551466 38.1124636, 13.3551196 38.1124439))",way,,,,
114,,,106620962,1301568376,,"{""contact:website"":""http://www.scaleaclub.com/""}",1,,,,,,Scalea Club,,,,,nightclub,,,,,,"POLYGON ((13.3074691 38.1779668, 13.3081824 38.1771285, 13.3079197 38.1769487, 13.3076755 38.1772199, 13.3076073 38.1773025, 13.3075552 38.1773666, 13.3074421 38.1774933, 13.3072223 38.1778155, 13.3074691 38.1779668))",way,,,,
115,,,153050970,1448959932,,"{""highway"":""pedestrian"",""wheelchair"":""yes""}",7,,,,,,,,,,,theatre,,,,,,"POLYGON ((13.3404177 38.0987043, 13.3402747 38.0987247, 13.3402694 38.0986932, 13.3402642 38.0986644, 13.3402644 38.0986289, 13.3402756 38.0985968, 13.3402894 38.0985698, 13.3403098 38.0985442, 13.3403822 38.0984988, 13.3404592 38.0984623, 13.3405445 38.0984524, 13.3406223 38.098464, 13.340681 38.0984868, 13.3407229 38.0985125, 13.3407559 38.0985412, 13.3407865 38.0985849, 13.3407964 38.0986116, 13.3408042 38.0986364, 13.3406585 38.0986571, 13.3406785 38.0987299, 13.3406616 38.098732, 13.3406665 38.0987538, 13.3404446 38.0987902, 13.3404382 38.0987687, 13.3404287 38.0987695, 13.3404177 38.0987043))",way,,,,
116,,,153253754,1592063194,,,5,,,,,,Fontana del Tritone,,,,,fountain,,,,,,"POLYGON ((13.2918723 38.0824159, 13.2918603 38.0824133, 13.29185 38.0824078, 13.2918424 38.0824001, 13.2918381 38.0823909, 13.2918377 38.0823812, 13.2918411 38.0823718, 13.291849 38.082363, 13.2918602 38.0823568, 13.2918735 38.082354, 13.2918871 38.0823549, 13.2918995 38.0823594, 13.2919093 38.082367, 13.2919151 38.0823768, 13.2919164 38.0823875, 13.2919129 38.082398, 13.2919061 38.0824061, 13.2918963 38.0824122, 13.2918847 38.0824155, 13.2918723 38.0824159))",way,,,,
117,,,172590335,1469425586,,,3,,,,,,Fontana di Venere Ciprigna,,,,,fountain,yes,,C15,,,"POLYGON ((14.0879534 37.9311407, 14.0879695 37.9311001, 14.0879897 37.9311051, 14.0879736 37.9311457, 14.0879534 37.9311407))",way,,,,
118,,,217123432,1496217111,,,2,,,,,,Teatro Parco Urbano di Finale,,,,,theatre,,,,,,"POLYGON ((14.1645124 38.0182941, 14.164617 38.0183111, 14.1647002 38.0182751, 14.1647619 38.0181969, 14.1650113 38.0181019, 14.1650302 38.0180156, 14.1649952 38.0179539, 14.1649551 38.0179015, 14.1648691 38.0178673, 14.1647699 38.0178736, 14.164448 38.0180511, 14.1644427 38.0181314, 14.1644132 38.0181758, 14.1644105 38.0182054, 14.1644562 38.0182586, 14.1644884 38.0182861, 14.1645124 38.0182941))",way,,,,
119,,,240817280,1539778545,,"{""artist_name"":""Ignazio Marabitti"",""wikidata"":""Q3747361""}",6,,,,,,Fontana del Pescatore,,,,,fountain,,,1768,,it:Fontana del Pescatore,"POLYGON ((13.3047205 38.0916757, 13.3047126 38.0916805, 13.304707 38.0916869, 13.3047042 38.0916945, 13.3047045 38.0917023, 13.3047078 38.0917097, 13.3047139 38.0917159, 13.3047222 38.0917203, 13.3047317 38.0917225, 13.3047427 38.0917221, 13.3047529 38.0917187, 13.3047611 38.0917128, 13.3047661 38.0917051, 13.3047675 38.0916965, 13.3047651 38.091688, 13.3047591 38.0916807, 13.3047503 38.0916754, 13.3047398 38.0916728, 13.3047298 38.091673, 13.3047205 38.0916757))",way,,,,
120,,,240817282,1589262661,,,2,,,,,,Fontana del Drago,,,,,fountain,,,,,,"POLYGON ((13.3026644 38.0914939, 13.3026906 38.0915145, 13.3027033 38.0915045, 13.3026772 38.0914839, 13.3026644 38.0914939))",way,,,,
121,,,278475128,1550157998,,,3,Palermo,5,,Via Don Orione,,Teatro Orione,,Opera Don Orione,,www.teatropalermo.it,theatre,,wlan,,,,"POLYGON ((13.3611119 38.1425261, 13.3610816 38.1426724, 13.3610795 38.1426824, 13.3613907 38.1427229, 13.3613933 38.1427107, 13.3614174 38.1427139, 13.3613995 38.1427988, 13.3614888 38.1428104, 13.3617795 38.1428458, 13.3618246 38.1426164, 13.3611119 38.1425261))",way,yes,,,Comune di Palermo
122,,,278477746,1630234870,,"{""wheelchair"":""yes"",""wikidata"":""Q3981989""}",2,Palermo,123,90143,Via Autonomia Siciliana,,Teatro tenda Franco Zappalà,,Famiglia Zappalà,,,theatre,,,1996,,it:Teatro Franco Zappalà,"POLYGON ((13.3547027 38.1417622, 13.3549622 38.1414382, 13.354911 38.1414126, 13.3549501 38.1413637, 13.3547749 38.1412763, 13.3547345 38.1413268, 13.3546814 38.1413004, 13.3544437 38.1415972, 13.3544518 38.1416013, 13.3544275 38.1416317, 13.3544632 38.1416495, 13.3544254 38.1416966, 13.3546221 38.141795, 13.354664 38.1417429, 13.3547027 38.1417622))",way,yes,,,local knowledge
123,,,279882518,1585077012,,"{""alt_name"":""Real Teatro di Santa Cecilia"",""capacity"":""336""}",3,,,,Piazza Teatro Santa Cecilia,,Teatro Santa Cecilia,,,,,theatre,,,,,it:Teatro Santa Cecilia,"POLYGON ((13.3660298 38.1140845, 13.3660207 38.1140566, 13.3660498 38.1140466, 13.3660233 38.113988, 13.3660719 38.1139638, 13.3660357 38.113906, 13.3658592 38.1139706, 13.3658366 38.1139398, 13.365614 38.1140188, 13.3656255 38.1140481, 13.3655626 38.1140706, 13.3656382 38.1142116, 13.3660298 38.1140845))",way,yes,,,Comune di Palermo
124,,,280093356,1626630140,,,3,Palermo,109,90146,Via Ugo La Malfa,,Formula Bingo,Mo-Su 10:00-02:00,,,,gambling,,,,,,"POLYGON ((13.3147079 38.1623515, 13.3146975 38.1623694, 13.3147255 38.1623798, 13.3153669 38.1626171, 13.3155433 38.1626628, 13.315605 38.1625544, 13.3156519 38.162472, 13.3148102 38.1621678, 13.3147611 38.1622525, 13.3147287 38.1622407, 13.3145711 38.1621838, 13.314563 38.1621977, 13.314555 38.1621948, 13.3145154 38.162263, 13.3145229 38.1622657, 13.3145138 38.1622813, 13.3147079 38.1623515))",way,yes,,bingo,Comune di Palermo
125,,,317811687,1643134554,,,2,,,,,,Cinema De Seta,,,,,cinema,,,,,,"POLYGON ((13.3374771 38.1187214, 13.3376822 38.1187593, 13.3377838 38.1184191, 13.3375787 38.1183812, 13.3374771 38.1187214))",way,yes,1,,
126,,,317812853,1534269092,,,2,,,,,,Fontana del dragone,,,,,fountain,,,,,it:Fontana dei due Draghi,"POLYGON ((13.3461519 38.1093507, 13.346164 38.1093189, 13.3461524 38.109287, 13.3461207 38.1092652, 13.346079 38.1092603, 13.3460406 38.1092739, 13.3460176 38.1093017, 13.3461519 38.1093507))",way,,,,
127,,,332572248,1539778543,,"{""capacity"":""950"",""wikidata"":""Q3516748""}",4,,258,,Via Roma,,Teatro Biondo,,,,http://teatrobiondo.it/,theatre,,,,,it:Teatro Biondo,"POLYGON ((13.3624849 38.1175202, 13.3627928 38.1176177, 13.3628423 38.1176157, 13.3628987 38.1175989, 13.3629389 38.1175693, 13.362963 38.1175355, 13.3629711 38.1174955, 13.3629657 38.1174617, 13.3629416 38.1174258, 13.3629067 38.1173899, 13.362845 38.1173667, 13.3627163 38.1173372, 13.3625922 38.1173053, 13.3624849 38.1175202))",way,yes,,,
128,,,338438409,1496217112,,,2,,,,,,Teatro Pietra Rosa,,,,,theatre,,,,,,"POLYGON ((14.1433257 37.9924509, 14.1433638 37.9924734, 14.1433879 37.9924967, 14.1434255 37.9925178, 14.1434759 37.9925481, 14.1435161 37.9925524, 14.143559 37.9925545, 14.1436132 37.9925368, 14.143661 37.9925164, 14.1437307 37.9924805, 14.1437548 37.9924446, 14.143787 37.9924129, 14.1438112 37.992379, 14.1438085 37.9923537, 14.1438085 37.992305, 14.1437983 37.9922684, 14.1437817 37.9922353, 14.1437602 37.9922142, 14.1437146 37.992193, 14.1436937 37.9921817, 14.1436529 37.9922163, 14.1436373 37.9922599, 14.1436019 37.992305, 14.1435596 37.9923572, 14.1434871 37.9923952, 14.1434383 37.9924129, 14.1433713 37.9924298, 14.1433257 37.9924509))",way,,,,
129,,,353991847,1434435645,,,1,,,,,,,,,,,fountain,,,,,,"POLYGON ((13.4718733 37.9305747, 13.4718811 37.9305806, 13.4718909 37.9305842, 13.4719015 37.9305851, 13.4719125 37.9305832, 13.4719221 37.9305785, 13.4719291 37.9305716, 13.4719329 37.9305633, 13.4719329 37.9305544, 13.4719291 37.930546, 13.4719221 37.9305391, 13.4719125 37.9305344, 13.4719015 37.9305325, 13.4718908 37.9305335, 13.4718811 37.9305371, 13.4718733 37.930543, 13.4718683 37.9305505, 13.4718666 37.9305588, 13.4718683 37.9305672, 13.4718733 37.9305747))",way,,,,
130,,,362267197,1437838117,,,1,,,,,,,,,,,fountain,,,,,,"POLYGON ((13.0827154 38.153254, 13.0827184 38.1532484, 13.0827238 38.1532442, 13.0827309 38.1532419, 13.0827386 38.153242, 13.0827456 38.1532443, 13.082751 38.1532486, 13.0827539 38.1532541, 13.0827538 38.1532602, 13.0827509 38.1532657, 13.0827454 38.1532699, 13.0827383 38.1532722, 13.0827307 38.1532722, 13.0827236 38.1532698, 13.0827183 38.1532656, 13.0827154 38.15326, 13.0827154 38.153254))",way,,,,
131,,,371082777,1442473424,,,1,,,,,,,,,,,fountain,,,,,,"POLYGON ((13.3576887 38.1480896, 13.3577087 38.1481166, 13.357746 38.1481001, 13.357725 38.1480738, 13.3576887 38.1480896))",way,,,,
132,,,416132180,1462537757,,"{""alt_name"":""Regio Teatro Carolino"",""capacity"":""274""}",1,,,,,,Teatro Bellini,,,,,theatre,,,,,it:Teatro Bellini (Palermo),"POLYGON ((13.3629416 38.114941, 13.3630744 38.1149635, 13.3630583 38.1150224, 13.3630494 38.1150548, 13.3629167 38.1150324, 13.3629416 38.114941))",way,,,,
133,,,416389735,1605600848,,"{""capacity"":""150"",""wikidata"":""Q3982082""}",2,,8,,Via Montevergini,,Teatro Nuovo Montevergini,,,,,theatre,,,2005,,it:Teatro Nuovo Montevergini,"POLYGON ((13.3584712 38.1153674, 13.3583773 38.1153201, 13.358164 38.1152129, 13.3581725 38.1152024, 13.358131 38.1151761, 13.3581228 38.1151588, 13.3581221 38.1151403, 13.3581294 38.1151226, 13.358137 38.1151149, 13.3581444 38.1151074, 13.3581653 38.1150973, 13.3581892 38.1150935, 13.3582134 38.1150965, 13.3582466 38.1151128, 13.3582532 38.1151048, 13.3584622 38.1152133, 13.3584743 38.1152196, 13.3585572 38.1152618, 13.3584712 38.1153674))",way,,,,
134,,,418897527,1572657426,,"{""artist_name"":""Ignazio Marabitti""}",3,,,,,,Fontana del Cavalluccio Marino,,,,,fountain,,,,,it:Fontana del Cavallo Marino,"POLYGON ((13.3708428 38.1192782, 13.3708294 38.1192621, 13.37081 38.1192514, 13.3707878 38.1192469, 13.3707658 38.1192486, 13.3707464 38.1192557, 13.3707277 38.1192713, 13.3707201 38.1192862, 13.3707187 38.1193021, 13.3707237 38.1193177, 13.3707348 38.1193314, 13.3707456 38.119339, 13.3707651 38.1193465, 13.3707875 38.1193484, 13.37081 38.1193438, 13.3708296 38.1193329, 13.370843 38.1193166, 13.3708477 38.1192974, 13.3708428 38.1192782))",way,,,,
135,,,468998445,1521144582,,,3,,,,,,Anfiteatro Villa a Mare,,,,,theatre,,,,,,"POLYGON ((13.0806711 38.1538741, 13.0808764 38.1540709, 13.0809181 38.1540507, 13.080963 38.1540898, 13.0809918 38.1540721, 13.0810319 38.1541074, 13.0810496 38.1540923, 13.0810849 38.1541314, 13.0812597 38.1540166, 13.0811346 38.1538842, 13.0812035 38.1538439, 13.0811367 38.1537792, 13.0810223 38.1536686, 13.0809405 38.1537077, 13.0808491 38.1536219, 13.0806887 38.153719, 13.0807769 38.1537997, 13.0806711 38.1538741))",way,yes,,,
136,,,546273608,1513066004,,"{""natural"":""water""}",1,,,,,,,,,,,fountain,,,,,,"POLYGON ((13.4485657 38.0771298, 13.4485556 38.0771358, 13.4485435 38.077139, 13.4485308 38.077139, 13.4485187 38.0771358, 13.4485086 38.0771297, 13.4485013 38.0771211, 13.448498 38.0771111, 13.4484991 38.0771008, 13.4485044 38.0770914, 13.4485134 38.0770839, 13.448525 38.0770791, 13.448538 38.0770775, 13.4485509 38.0770795, 13.4485622 38.0770846, 13.4485708 38.0770925, 13.4485756 38.0771018, 13.4485763 38.0771118, 13.4485729 38.0771215, 13.4485657 38.0771298))",way,,,,
137,,,551739404,1515451471,,"{""artist_name"":""Ignazio Marabitti"",""natural"":""water"",""year_of_construction"":""1778""}",1,,,,,,Fontana del Genio a Villa Giulia,,,,,fountain,,,,,it:Fontana del Genio a Villa Giulia,"POLYGON ((13.3745638 38.1129739, 13.374569 38.112984, 13.3745698 38.1129929, 13.3745675 38.1130016, 13.3745622 38.1130095, 13.3745544 38.1130159, 13.3745446 38.1130204, 13.3745336 38.1130226, 13.3745223 38.1130223, 13.3745115 38.1130196, 13.3745021 38.1130146, 13.3744935 38.1130061, 13.374489 38.1129957, 13.3744892 38.1129848, 13.3744941 38.1129745, 13.374503 38.1129662, 13.374515 38.1129607, 13.3745287 38.1129587, 13.3745424 38.1129604, 13.3745546 38.1129657, 13.3745638 38.1129739))",way,,,,
138,,,551741784,1515453004,,"{""natural"":""water""}",1,,,,,,,,,,,fountain,,,,,,"POLYGON ((13.3750259 38.1134064, 13.3750325 38.1134115, 13.3750366 38.1134181, 13.3750378 38.1134253, 13.375036 38.1134324, 13.3750313 38.1134387, 13.3750243 38.1134434, 13.3750156 38.1134461, 13.3750064 38.1134464, 13.3749976 38.1134444, 13.3749901 38.1134402, 13.3749847 38.1134343, 13.374982 38.1134274, 13.3749823 38.1134202, 13.3749856 38.1134134, 13.3749915 38.1134078, 13.3749993 38.1134041, 13.3750083 38.1134025, 13.3750175 38.1134033, 13.3750259 38.1134064))",way,,,,
139,,,551742258,1515453446,,"{""natural"":""water""}",1,,,,,,,,,,,fountain,,,,,,"POLYGON ((13.3756511 38.1144537, 13.3756566 38.1144591, 13.3756623 38.1144653, 13.3756651 38.1144734, 13.3756639 38.1144824, 13.375658 38.1144902, 13.3756498 38.1144949, 13.3756401 38.114497, 13.3756287 38.1144974, 13.3756179 38.1144942, 13.3756076 38.1144898, 13.3755999 38.1144826, 13.3755962 38.1144746, 13.3755949 38.1144658, 13.3755996 38.1144569, 13.3756077 38.1144497, 13.3756192 38.1144464, 13.3756304 38.1144462, 13.3756415 38.1144495, 13.3756511 38.1144537))",way,,,,
140,,,551744944,1515455926,,"{""natural"":""water"",""tourism"":""attraction"",""wikidata"":""Q3759740""}",1,,,,,,Il Genio di Palermo,,,,,fountain,,,,,it:Genio di Piazza Rivoluzione,"POLYGON ((13.3665776 38.1141038, 13.3665862 38.1141119, 13.366591 38.1141217, 13.3665914 38.1141322, 13.3665875 38.1141422, 13.3665797 38.1141507, 13.3665688 38.1141568, 13.366556 38.1141597, 13.3665426 38.1141591, 13.3665303 38.1141552, 13.3665202 38.1141484, 13.3665135 38.1141394, 13.3665109 38.1141291, 13.3665126 38.1141187, 13.3665185 38.1141094, 13.366528 38.114102, 13.36654 38.1140975, 13.3665532 38.1140962, 13.3665662 38.1140984, 13.3665776 38.1141038))",way,,,,
141,,,551746957,1515457750,,"{""natural"":""water"",""water"":""basin""}",1,,,,,,,,,,,fountain,,,,,,"POLYGON ((13.3539298 38.1122105, 13.3539342 38.1122169, 13.3539358 38.1122241, 13.3539343 38.1122313, 13.35393 38.1122377, 13.3539232 38.1122426, 13.3539147 38.1122456, 13.3539055 38.1122462, 13.3538965 38.1122444, 13.3538888 38.1122405, 13.3538831 38.1122348, 13.3538801 38.1122279, 13.3538801 38.1122207, 13.353883 38.1122138, 13.3538887 38.1122081, 13.3538963 38.1122041, 13.3539053 38.1122022, 13.3539144 38.1122028, 13.3539229 38.1122056, 13.3539298 38.1122105))",way,,,,
142,,,551747811,1515458628,,"{""natural"":""water""}",1,,,,,,,,,,,fountain,,,,,,"POLYGON ((13.3560422 38.1138295, 13.3560456 38.1138331, 13.3560474 38.1138375, 13.3560473 38.113842, 13.3560454 38.1138463, 13.3560419 38.1138499, 13.3560371 38.1138524, 13.3560315 38.1138536, 13.3560257 38.1138534, 13.3560201 38.1138515, 13.3560156 38.1138484, 13.3560127 38.1138442, 13.3560117 38.1138395, 13.3560127 38.1138348, 13.3560157 38.1138307, 13.3560202 38.1138275, 13.3560259 38.1138257, 13.3560319 38.1138255, 13.3560375 38.1138268, 13.3560422 38.1138295))",way,,,,
143,,,551747812,1515458628,,"{""natural"":""water""}",1,,,,,,,,,,,fountain,,,,,,"POLYGON ((13.3566484 38.1140733, 13.3566495 38.1140778, 13.3566488 38.1140824, 13.3566462 38.1140865, 13.3566422 38.1140897, 13.356637 38.1140918, 13.3566312 38.1140925, 13.3566255 38.1140917, 13.3566204 38.1140895, 13.3566164 38.1140861, 13.356614 38.1140818, 13.3566135 38.114077, 13.356615 38.1140724, 13.3566184 38.1140685, 13.3566233 38.1140656, 13.3566291 38.1140642, 13.3566351 38.1140644, 13.3566408 38.1140661, 13.3566454 38.1140692, 13.3566484 38.1140733))",way,,,,
144,,,552465178,1515708189,,"{""natural"":""water""}",1,,,,,,,,,,,fountain,,,,,,"POLYGON ((13.3569142 38.118582, 13.3569186 38.1185867, 13.3569209 38.1185922, 13.3569208 38.1185981, 13.3569182 38.1186036, 13.3569135 38.1186081, 13.3569073 38.1186112, 13.3569 38.1186125, 13.3568926 38.1186119, 13.3568859 38.1186095, 13.3568805 38.1186055, 13.3568771 38.1186003, 13.356876 38.1185945, 13.3568774 38.1185887, 13.356881 38.1185836, 13.3568866 38.1185797, 13.3568935 38.1185775, 13.3569009 38.1185771, 13.3569081 38.1185787, 13.3569142 38.118582))",way,,,,
145,,,552466295,1515708853,,"{""natural"":""water""}",1,,,,,,Magliocco,,,,,fountain,,,,,,"POLYGON ((13.3568326 38.1217134, 13.3568557 38.1216787, 13.3568985 38.1216964, 13.3568755 38.1217311, 13.3568326 38.1217134))",way,,,,
146,,,552479427,1515714812,,"{""natural"":""water"",""water"":""basin""}",1,,,,,,,,,,,fountain,,,,,,"POLYGON ((13.3516831 38.1319272, 13.3516372 38.1319394, 13.3515988 38.1319662, 13.3515473 38.132006, 13.3515703 38.1320344, 13.3515889 38.1320356, 13.3516148 38.1320529, 13.35164 38.1320697, 13.3516666 38.1320918, 13.3517075 38.1321005, 13.3517506 38.1320969, 13.351783 38.1320896, 13.3518076 38.1320496, 13.3518276 38.1319873, 13.3518005 38.1319519, 13.3517751 38.131948, 13.351751 38.1319306, 13.3517103 38.131934, 13.3516831 38.1319272))",way,,,,
147,,,552481685,1515716308,,"{""natural"":""water""}",1,,,,,,,,,,,fountain,,,,,,"POLYGON ((13.3522391 38.1329321, 13.3522279 38.132928, 13.3522232 38.1329182, 13.3522586 38.1328751, 13.3522883 38.1328514, 13.3522949 38.1328363, 13.352317 38.1328277, 13.3523542 38.1328277, 13.3524232 38.1328486, 13.3524639 38.1328723, 13.3524922 38.1329043, 13.3525063 38.1329516, 13.352471 38.1329892, 13.352432 38.1330017, 13.3524002 38.132992, 13.3523559 38.1329642, 13.3523365 38.1329391, 13.3523157 38.1329201, 13.3522887 38.1329185, 13.3522627 38.132923, 13.3522528 38.1329286, 13.3522391 38.1329321))",way,,,,
148,,,552481993,1515716645,,"{""natural"":""water""}",1,,,,,,,,,,,fountain,,,,,,"POLYGON ((13.351176 38.1310574, 13.3511812 38.1310656, 13.3511825 38.1310747, 13.35118 38.1310836, 13.3511737 38.1310913, 13.3511646 38.131097, 13.3511535 38.1310999, 13.3511419 38.1310997, 13.351131 38.1310964, 13.3511227 38.131091, 13.351117 38.1310839, 13.3511144 38.1310757, 13.3511151 38.1310673, 13.351119 38.1310595, 13.3511259 38.131053, 13.351135 38.1310485, 13.3511454 38.1310465, 13.351157 38.1310472, 13.3511676 38.131051, 13.351176 38.1310574))",way,,,,
149,,,552482010,1515716749,,"{""natural"":""water""}",1,,,,,,,,,,,fountain,,,,,,"POLYGON ((13.3507125 38.1317642, 13.3507195 38.1317715, 13.3507231 38.1317803, 13.3507228 38.1317896, 13.3507186 38.1317982, 13.3507109 38.1318052, 13.3507008 38.1318098, 13.3506892 38.1318115, 13.3506776 38.1318101, 13.3506678 38.1318061, 13.3506602 38.1317998, 13.3506554 38.131792, 13.3506539 38.1317834, 13.350656 38.1317748, 13.3506614 38.1317672, 13.3506695 38.1317613, 13.3506796 38.1317578, 13.3506913 38.1317569, 13.3507027 38.1317591, 13.3507125 38.1317642))",way,,,,
150,,,552484031,1515718916,,"{""natural"":""water""}",1,,,,,,,,,,,fountain,,,,,,"POLYGON ((13.3426995 38.1377863, 13.3427083 38.1377902, 13.3427149 38.1377961, 13.3427188 38.1378034, 13.3427193 38.1378114, 13.3427166 38.137819, 13.3427108 38.1378255, 13.3427027 38.1378301, 13.342693 38.1378324, 13.3426829 38.1378321, 13.3426737 38.1378293, 13.3426661 38.1378244, 13.342661 38.1378177, 13.3426588 38.1378102, 13.3426598 38.1378024, 13.3426639 38.1377954, 13.3426707 38.1377897, 13.3426796 38.137786, 13.3426896 38.1377848, 13.3426995 38.1377863))",way,,,,
151,,,552484032,1515718916,,"{""natural"":""water""}",1,,,,,,,,,,,fountain,,,,,,"POLYGON ((13.3420813 38.1387612, 13.342089 38.1387684, 13.3420933 38.1387772, 13.3420939 38.1387866, 13.3420906 38.1387956, 13.3420838 38.1388034, 13.3420742 38.138809, 13.3420629 38.1388119, 13.3420509 38.1388118, 13.3420392 38.1388086, 13.3420295 38.1388024, 13.3420229 38.1387941, 13.3420202 38.1387845, 13.3420218 38.1387748, 13.3420273 38.138766, 13.3420363 38.1387592, 13.3420476 38.1387551, 13.3420595 38.1387542, 13.3420711 38.1387563, 13.3420813 38.1387612))",way,,,,
152,,,552486011,1518635228,,"{""natural"":""water"",""wikidata"":""Q3747331""}",3,,,,,,Fontana d'Ercole,,,,,fountain,,,,,it:Fontana d'Ercole (Palermo),"POLYGON ((13.335313 38.168739, 13.3352921 38.1687783, 13.335256 38.16881, 13.3352087 38.1688307, 13.3351554 38.1688382, 13.3351019 38.1688315, 13.3350542 38.1688114, 13.3350178 38.1687807, 13.334996 38.1687425, 13.3349911 38.1687007, 13.3350035 38.1686599, 13.3350319 38.1686245, 13.3350734 38.1685981, 13.3351234 38.1685836, 13.3351767 38.1685826, 13.3352276 38.1685952, 13.3352712 38.1686204, 13.335302 38.1686554, 13.3353164 38.1686965, 13.335313 38.168739))",way,,,,
153,,,552851736,1515857740,,"{""barrier"":""wall"",""natural"":""water""}",1,,,,,,Fontana Malfitano,,,,,fountain,,,,,,"POLYGON ((13.3420188 38.123503, 13.3420167 38.1235134, 13.3420106 38.1235228, 13.3420011 38.1235302, 13.3419891 38.1235348, 13.3419758 38.1235363, 13.3419627 38.1235345, 13.3419509 38.1235295, 13.3419411 38.1235211, 13.3419354 38.1235106, 13.3419346 38.1234992, 13.3419388 38.1234883, 13.3419474 38.1234791, 13.3419594 38.1234727, 13.3419735 38.12347, 13.3419879 38.1234711, 13.342001 38.123476, 13.3420105 38.1234833, 13.3420167 38.1234927, 13.3420188 38.123503))",way,,,,
154,,,552861822,1515861618,,"{""natural"":""water""}",1,,,,,,,,,,,fountain,,,,,,"POLYGON ((13.3419207 38.116779, 13.3419211 38.1167381, 13.3419211 38.1167338, 13.3419684 38.1167342, 13.3419682 38.1167538, 13.3419681 38.11676, 13.3419679 38.1167793, 13.3419207 38.116779))",way,,,,
155,,,552861823,1515861619,,"{""natural"":""water""}",1,,,,,,,,,,,fountain,,,,,,"POLYGON ((13.3420811 38.1167719, 13.3420814 38.1167604, 13.3420815 38.1167542, 13.3420814 38.1167431, 13.3423771 38.116745, 13.3423768 38.1167738, 13.3420811 38.1167719))",way,,,,
156,,,552861824,1515861619,,"{""natural"":""water""}",1,,,,,,,,,,,fountain,,,,,,"POLYGON ((13.3423965 38.1167742, 13.3423968 38.1167451, 13.3427756 38.1167477, 13.3427753 38.1167768, 13.3423965 38.1167742))",way,,,,
157,,,552861825,1515861619,,"{""natural"":""water""}",1,,,,,,,,,,,fountain,,,,,,"POLYGON ((13.3429401 38.1167918, 13.3429405 38.116768, 13.3429338 38.1167679, 13.3429339 38.1167596, 13.3429401 38.1167597, 13.3429404 38.1167335, 13.3430571 38.1167342, 13.3430571 38.1167607, 13.3430634 38.1167608, 13.3430633 38.1167698, 13.3430576 38.1167698, 13.3430572 38.1167929, 13.3429401 38.1167918))",way,,,,
158,,,552861826,1515861619,,"{""natural"":""water""}",1,,,,,,,,,,,fountain,,,,,,"POLYGON ((13.3432067 38.1167807, 13.3432071 38.1167512, 13.3435657 38.1167542, 13.3435655 38.1167659, 13.3435655 38.1167718, 13.3435653 38.1167837, 13.3432067 38.1167807))",way,,,,
159,,,552861827,1515861619,,"{""natural"":""water""}",1,,,,,,,,,,,fountain,,,,,,"POLYGON ((13.3436894 38.1167847, 13.3436899 38.1167548, 13.3436528 38.1167544, 13.3436526 38.116766, 13.3436526 38.116772, 13.3436523 38.1167843, 13.3436894 38.1167847))",way,,,,
160,,,552941643,1515897603,,"{""barrier"":""wall"",""natural"":""water""}",1,,,,,,,,,,,fountain,,,,,,"POLYGON ((13.352068 38.1073986, 13.3520759 38.1074051, 13.3520809 38.1074132, 13.3520824 38.1074221, 13.3520802 38.1074309, 13.3520745 38.1074388, 13.3520661 38.1074448, 13.3520556 38.1074484, 13.3520435 38.1074492, 13.3520317 38.1074468, 13.3520217 38.1074414, 13.3520145 38.1074337, 13.352011 38.1074245, 13.3520117 38.1074149, 13.3520164 38.1074061, 13.3520245 38.107399, 13.3520352 38.1073945, 13.3520465 38.107393, 13.3520578 38.1073944, 13.352068 38.1073986))",way,,,,
161,,,558124674,1517621133,,"{""natural"":""water""}",1,,,,,,,,,,,fountain,,,,,,"POLYGON ((13.357535 38.1182355, 13.3575317 38.1182304, 13.3575353 38.1182256, 13.3575428 38.1182257, 13.3575463 38.1182307, 13.3575425 38.1182356, 13.357535 38.1182355))",way,,,,
162,,,558126259,1517622135,,"{""artist_name"":""Paolo Amato"",""natural"":""water"",""water"":""basin"",""wikidata"":""Q3747353"",""year_of_construction"":""1698""}",1,,,,,,Fontana del Garraffo,,,,,fountain,,,,,it:Fontana del Garraffo,"POLYGON ((13.3674705 38.1179524, 13.3674754 38.1179575, 13.3674777 38.1179636, 13.3674774 38.11797, 13.3674743 38.1179758, 13.3674689 38.1179806, 13.3674618 38.1179836, 13.3674538 38.1179846, 13.3674459 38.1179834, 13.3674389 38.1179802, 13.3674341 38.1179759, 13.3674312 38.1179705, 13.3674305 38.1179648, 13.3674321 38.1179591, 13.3674358 38.1179542, 13.3674412 38.1179503, 13.3674479 38.1179479, 13.367456 38.1179473, 13.3674638 38.1179489, 13.3674705 38.1179524))",way,,,,
163,,,558135083,1517624125,,"{""barrier"":""wall"",""natural"":""water""}",1,,,,,,,,,,,fountain,,,,,,"POLYGON ((13.3641279 38.1233798, 13.3642716 38.1233986, 13.3643167 38.1231859, 13.3642795 38.1231707, 13.3642223 38.1232573, 13.3641508 38.1232719, 13.3641279 38.1233798))",way,,,,
164,,,560768598,1518454698,,"{""artist_name"":""Vincenzo La Barbera"",""natural"":""water""}",1,,,,,,Fontana della Ninfa,,,,,fountain,,,1635,,it:Fontana della Ninfa,"POLYGON ((13.3499761 38.13438, 13.3499854 38.1343663, 13.3499942 38.1343679, 13.3500012 38.1343643, 13.3500015 38.1343569, 13.3499952 38.1343518, 13.3500045 38.134338, 13.3499893 38.1343317, 13.3499916 38.1343257, 13.3499872 38.1343199, 13.349978 38.1343199, 13.3499718 38.1343244, 13.3499572 38.1343182, 13.3499474 38.1343327, 13.3499389 38.134331, 13.3499319 38.1343353, 13.3499316 38.1343421, 13.3499376 38.1343473, 13.3499288 38.1343603, 13.3499432 38.1343664, 13.3499416 38.1343726, 13.3499457 38.134378, 13.3499553 38.1343784, 13.3499607 38.1343736, 13.3499761 38.13438))",way,,,,
165,,,560772120,1518455715,,"{""natural"":""water""}",1,,,,,,,,,,,fountain,,,,,,"POLYGON ((13.3371437 38.1567693, 13.3371699 38.1567413, 13.3372093 38.1567346, 13.3372453 38.1567536, 13.3372535 38.1567859, 13.3372304 38.1568153, 13.3371886 38.1568225, 13.3371507 38.1568028, 13.3371437 38.1567693))",way,,,,
166,,,560773842,1518456305,,"{""natural"":""water"",""water"":""basin""}",1,,,,,,,,,,,fountain,,,,,,"POLYGON ((13.3299228 38.1672034, 13.3299199 38.1672108, 13.3299141 38.1672171, 13.3299059 38.1672215, 13.3298964 38.1672236, 13.3298865 38.167223, 13.3298774 38.1672199, 13.3298704 38.1672149, 13.3298658 38.1672083, 13.3298641 38.167201, 13.3298655 38.1671936, 13.3298697 38.1671869, 13.3298765 38.1671817, 13.329885 38.1671784, 13.3298945 38.1671774, 13.3299038 38.1671788, 13.329912 38.1671825, 13.3299186 38.1671884, 13.3299223 38.1671956, 13.3299228 38.1672034))",way,,,,
167,,,560773843,1518456305,,"{""natural"":""water"",""water"":""basin""}",1,,,,,,,,,,,fountain,,,,,,"POLYGON ((13.3302089 38.167321, 13.330206 38.1673285, 13.3302002 38.1673348, 13.330192 38.1673392, 13.3301825 38.1673412, 13.3301726 38.1673407, 13.3301635 38.1673376, 13.3301565 38.1673325, 13.3301519 38.167326, 13.3301502 38.1673186, 13.3301516 38.1673112, 13.3301559 38.1673046, 13.3301626 38.1672993, 13.3301711 38.167296, 13.3301806 38.1672951, 13.3301899 38.1672965, 13.3301981 38.1673002, 13.3302047 38.167306, 13.3302084 38.1673133, 13.3302089 38.167321))",way,,,,
168,,,560773844,1518456305,,"{""natural"":""water"",""water"":""basin""}",1,,,,,,,,,,,fountain,,,,,,"POLYGON ((13.329908 38.1675019, 13.3299077 38.1675098, 13.3299049 38.1675173, 13.3298998 38.167524, 13.3298928 38.1675296, 13.3298842 38.1675335, 13.3298746 38.1675357, 13.3298647 38.167536, 13.329855 38.1675343, 13.3298461 38.1675307, 13.3298386 38.1675256, 13.3298314 38.1675165, 13.3298286 38.1675061, 13.3298304 38.1674955, 13.3298366 38.167486, 13.3298466 38.1674787, 13.329859 38.1674744, 13.3298726 38.1674737, 13.3298856 38.1674766, 13.3298967 38.1674829, 13.3299044 38.1674916, 13.329908 38.1675019))",way,,,,
169,,,560935219,1518508847,,,1,,,,,,"Teatro Comunale ""S. Cicero""",,,,,theatre,,,,,,"POLYGON ((14.0199173 38.0379764, 14.0198378 38.0377685, 14.0199484 38.0376893, 14.020049 38.0379376, 14.0199173 38.0379764))",way,yes,,,
170,,,560935891,1518508992,,"{""natural"":""water"",""water"":""basin""}",1,,,,,,,,,,,fountain,,,,,,"POLYGON ((13.5069281 38.078354, 13.5069146 38.0783608, 13.5068989 38.0783638, 13.5068829 38.0783627, 13.5068678 38.0783575, 13.5068558 38.0783486, 13.5068481 38.0783371, 13.5068457 38.0783243, 13.5068487 38.0783115, 13.5068569 38.0783003, 13.5068694 38.0782918, 13.5068847 38.078287, 13.5069008 38.0782864, 13.5069163 38.0782899, 13.5069295 38.0782971, 13.5069391 38.0783073, 13.506944 38.0783194, 13.5069437 38.0783321, 13.5069382 38.0783441, 13.5069281 38.078354))",way,,,,
171,,,560939513,1518509576,,"{""natural"":""water"",""water"":""basin""}",1,,,,,,,,,,,fountain,,,,,,"POLYGON ((13.5075467 38.0816108, 13.5075499 38.081608, 13.5075541 38.0816062, 13.5075588 38.0816055, 13.5075636 38.081606, 13.5075679 38.0816077, 13.5075713 38.0816104, 13.5075734 38.0816138, 13.507574 38.0816175, 13.5075731 38.0816212, 13.5075708 38.0816245, 13.5075669 38.0816272, 13.5075621 38.0816286, 13.507557 38.0816287, 13.5075521 38.0816274, 13.5075481 38.0816249, 13.5075455 38.0816217, 13.5075444 38.0816181, 13.5075448 38.0816143, 13.5075467 38.0816108))",way,,,,
172,,,560953628,1518512458,,"{""natural"":""water""}",1,,,,,,Fontana Niscemi,,,,,fountain,,,,,,"POLYGON ((13.3319399 38.1638464, 13.3319516 38.1638222, 13.3319624 38.1638111, 13.3319758 38.1637985, 13.3319966 38.1637895, 13.332014 38.1637826, 13.3320335 38.1637758, 13.3320556 38.1637673, 13.3320757 38.1637584, 13.3320864 38.1637447, 13.3320985 38.1637378, 13.3321079 38.163731, 13.3321133 38.1637173, 13.3321133 38.1637083, 13.3320837 38.1636935, 13.3320623 38.1636767, 13.3320254 38.1636661, 13.3319986 38.1636603, 13.3319785 38.1636519, 13.3319664 38.1636466, 13.3319262 38.1636139, 13.3318967 38.1635949, 13.3318792 38.1635897, 13.3318531 38.1635849, 13.3318316 38.1635791, 13.3318195 38.1635739, 13.3317974 38.1635628, 13.3317793 38.1635559, 13.3317558 38.1635559, 13.3317357 38.1635559, 13.331723 38.1635601, 13.331717 38.1635681, 13.331723 38.1635797, 13.3317317 38.1635934, 13.3317284 38.1636013, 13.331721 38.1636092, 13.3317277 38.163616, 13.3317243 38.1636266, 13.3317237 38.1636329, 13.3317287 38.1636361, 13.3317404 38.1636334, 13.3317605 38.1636282, 13.331774 38.1636279, 13.331787 38.1636276, 13.3317981 38.163629, 13.3318014 38.1636355, 13.3318025 38.1636442, 13.3318031 38.1636508, 13.3317961 38.1636587, 13.331785 38.1636672, 13.331777 38.1636751, 13.3317763 38.1636793, 13.3317927 38.1636922, 13.3318021 38.1636983, 13.3318273 38.163703, 13.3318474 38.1637152, 13.3318645 38.1637265, 13.3318742 38.1637439, 13.3318796 38.1637629, 13.3318786 38.1637745, 13.3318745 38.1637803, 13.3318826 38.1637929, 13.3318879 38.1638008, 13.3318893 38.1638116, 13.3318856 38.1638214, 13.3318953 38.1638272, 13.331899 38.163838, 13.3319007 38.1638504, 13.3319027 38.1638665, 13.3319091 38.1638844, 13.3319181 38.1638944, 13.3319258 38.1638968, 13.3319319 38.1638923, 13.3319312 38.1638765, 13.3319349 38.1638593, 13.3319399 38.1638464))",way,,,,
173,,,568524257,1520698705,,,1,,,,,,,,,,,planetarium,,,,,,"POLYGON ((14.0203318 37.9394816, 14.0207351 37.9395157, 14.0207543 37.9394097, 14.0203558 37.9393756, 14.0203318 37.9394816))",way,yes,,,
174,,,568524258,1520698705,,,1,,,,,,GAL Hassin,,,,,planetarium,,,,,,"POLYGON ((14.0205815 37.9396823, 14.0206343 37.9396596, 14.0206967 37.9396558, 14.0207831 37.9396823, 14.0208167 37.9397391, 14.0208119 37.9397884, 14.0207687 37.9398376, 14.0207351 37.9398111, 14.0206871 37.93983, 14.0206295 37.9398187, 14.0205959 37.9397808, 14.0206247 37.9397164, 14.0205815 37.9396823))",way,yes,,,
175,,,568524259,1520698705,,,1,,,,,,,,,,,planetarium,,,,,,"POLYGON ((14.0210952 37.9396331, 14.0212776 37.9396483, 14.0213305 37.9394211, 14.0212584 37.9393415, 14.0211528 37.9393378, 14.0210952 37.9396331))",way,yes,,,
176,,,568524260,1520698705,,,1,,,,,,,,,,,planetarium,,,,,,"POLYGON ((14.0210664 37.9396823, 14.0213737 37.9397088, 14.0213689 37.9397846, 14.0212728 37.9397846, 14.0212536 37.9398982, 14.0212968 37.939902, 14.021292 37.940008, 14.0212248 37.940008, 14.0212248 37.9399701, 14.0211432 37.9399701, 14.0211528 37.9398792, 14.0210712 37.9398679, 14.0210664 37.9396823))",way,yes,,,
177,,,570315563,1521218261,,"{""natural"":""water""}",1,,,,,,,,,,,fountain,,,,,,"POLYGON ((13.3661495 38.1188958, 13.3661771 38.1188723, 13.3661855 38.1188727, 13.3662377 38.1189329, 13.3662314 38.1189386, 13.3661511 38.1189032, 13.3661495 38.1188958))",way,,,,
178,,,584332756,1524979703,,,1,,,,,,,,,,,fountain,,,,,,"POLYGON ((14.1148142 37.6951629, 14.1148084 37.6951283, 14.1148319 37.6951259, 14.1148377 37.6951605, 14.1148142 37.6951629))",way,,,,
179,,,631211998,1538811091,,,1,,,,,,,,,,,fountain,,,,,,"POLYGON ((13.3658509 38.1148925, 13.3658397 38.1148729, 13.3658705 38.114862, 13.3658817 38.1148817, 13.3658509 38.1148925))",way,,,,
180,,,631346841,1615221550,,"{""wikidata"":""Q27994854""}",3,,,,,,,,,,,fountain,,,,,,"POLYGON ((13.1810227 38.1315194, 13.1810107 38.1315132, 13.1809965 38.1315146, 13.1809867 38.1315228, 13.1809859 38.131534, 13.1809945 38.131543, 13.1810084 38.1315456, 13.1810212 38.1315405, 13.1810268 38.1315302, 13.1810227 38.1315194))",way,,,,
181,,,631346843,1538846689,,,1,,,,,,Anfiteatro Totuccio Aiello,,,,,theatre,,,,,,"POLYGON ((13.1812948 38.1307643, 13.181496 38.1307983, 13.1815385 38.1306301, 13.1813346 38.1305972, 13.1812948 38.1307643))",way,yes,,,
182,,,663887047,1569523285,,,2,,,,,,,,,,,fountain,,,,,,"POLYGON ((13.4863664 37.8276567, 13.4863732 37.827663, 13.4863772 37.8276705, 13.4863781 37.8276787, 13.4863755 37.8276868, 13.4863699 37.8276937, 13.4863619 37.827699, 13.4863522 37.827702, 13.4863419 37.8277025, 13.486331 37.8277001, 13.4863218 37.8276949, 13.4863155 37.8276875, 13.4863125 37.8276789, 13.4863134 37.8276701, 13.4863181 37.827662, 13.4863259 37.8276557, 13.486336 37.8276518, 13.4863473 37.8276507, 13.4863574 37.8276525, 13.4863664 37.8276567))",way,,,,
183,,,663887057,1569523285,,,2,,,,,,,,,,,fountain,,,,,,"POLYGON ((13.4844372 37.8275773, 13.4844446 37.8275843, 13.4844486 37.8275928, 13.484449 37.8276019, 13.4844456 37.8276105, 13.4844388 37.8276179, 13.4844294 37.8276231, 13.4844184 37.8276256, 13.4844069 37.8276251, 13.4843962 37.8276217, 13.4843875 37.8276158, 13.4843818 37.8276079, 13.4843795 37.827599, 13.484381 37.8275901, 13.4843862 37.8275819, 13.4843944 37.8275756, 13.4844048 37.8275717, 13.4844162 37.8275706, 13.4844274 37.8275726, 13.4844372 37.8275773))",way,,,,
184,,,663887060,1547660195,,,1,,,,,,,,,,,community_centre,,,,,,"POLYGON ((13.4840666 37.8276297, 13.4842793 37.8275696, 13.4842268 37.8274538, 13.4841911 37.8274425, 13.4840056 37.827495, 13.4840666 37.8276297))",way,yes,,,
185,,,734244751,1570998919,,,3,,,,,,,,,,,fountain,,,,,,"POLYGON ((13.2510396 38.1983443, 13.2510102 38.1983318, 13.2509957 38.1983082, 13.2510017 38.1982823, 13.2510259 38.1982642, 13.2510591 38.1982607, 13.2510885 38.1982732, 13.2511029 38.1982969, 13.2510969 38.1983227, 13.2510727 38.1983409, 13.2510396 38.1983443))",way,,,,
186,,,734860613,1571152509,,,1,,,,,,,,,,,fountain,,,,,,"POLYGON ((13.2394034 38.1713685, 13.2393882 38.1713605, 13.2393846 38.1713463, 13.2393948 38.1713344, 13.2394128 38.1713316, 13.2394281 38.1713396, 13.2394316 38.1713538, 13.2394214 38.1713657, 13.2394034 38.1713685))",way,,,,
187,,,736910376,1571529328,,,1,,,,,,,,,,,fountain,,,,,,"POLYGON ((13.1092691 38.1550252, 13.1092754 38.155036, 13.1092919 38.1550455, 13.1093076 38.155047, 13.1093301 38.1550439, 13.1093469 38.1550354, 13.1093586 38.155022, 13.1093643 38.1550083, 13.1093626 38.1549954, 13.1093562 38.1549822, 13.1093412 38.1549732, 13.1093241 38.1549703, 13.1093096 38.1549706, 13.1092919 38.154978, 13.1092805 38.1549875, 13.1092687 38.155003, 13.109266 38.1550175, 13.1092691 38.1550252))",way,,,,
188,,,758172329,1647695642,,"{""area"":""yes"",""tourism"":""attraction"",""wheelchair"":""limited""}",3,,,,,,,,,,,theatre,,,,,,"POLYGON ((13.4243864 37.7226437, 13.4245097 37.7226833, 13.4245043 37.7227243, 13.4246312 37.7227356, 13.424642 37.7227074, 13.4247474 37.7227187, 13.4247546 37.7225858, 13.4247903 37.7225165, 13.4248189 37.7224515, 13.424726 37.7223468, 13.4246259 37.72232, 13.4245347 37.7223779, 13.4245133 37.722303, 13.4243989 37.722303, 13.4243989 37.7224486, 13.4244614 37.7224741, 13.4243953 37.7225419, 13.4244561 37.722566, 13.4243864 37.7226437))",way,,,,
189,,,916738188,1615656968,,,1,Partinico,,,Strada statale Settentrionale Sicula,,Baglio Luna,,,,,events_venue,,,,,,"POLYGON ((13.030112 37.9966889, 13.0303989 37.9967771, 13.0305203 37.996532, 13.0302333 37.9964438, 13.030112 37.9966889))",way,yes,,,
190,,,916738985,1615657077,,,1,,,,,,Baglio Luna,,,,,events_venue,,,,,,"POLYGON ((13.0297754 37.996264, 13.0298854 37.9963785, 13.0302252 37.9961758, 13.0301153 37.9960613, 13.0297754 37.996264))",way,yes,,,
191,,,916740409,1615657341,,,1,,,,,,Baglio Regia Corte,,,,,events_venue,,,,,,"POLYGON ((13.0243645 38.0019306, 13.0244688 38.0016334, 13.0252258 38.0017983, 13.0251215 38.0020957, 13.0243645 38.0019306))",way,yes,,,
192,,,916740508,1615657391,,,1,,,,,,Baglio Regia Corte,,,,,events_venue,,,,,,"POLYGON ((13.0243329 38.0024458, 13.0245515 38.0024893, 13.0246079 38.002313, 13.0243892 38.0022696, 13.0243329 38.0024458))",way,yes,,,
193,,,923619121,1617081085,,,1,,,,,,,,,,,fountain,,,,,,"POLYGON ((13.8396064 37.9821353, 13.8395977 37.9821394, 13.839587 37.9821394, 13.8395779 37.9821348, 13.8395729 37.9821261, 13.8395754 37.9821167, 13.8395844 37.9821103, 13.8395854 37.9821097, 13.8395539 37.9820712, 13.8395826 37.9820566, 13.8395775 37.9820491, 13.8395781 37.9820407, 13.8395843 37.9820337, 13.8395956 37.9820303, 13.8396074 37.9820327, 13.8396151 37.9820401, 13.8396382 37.9820284, 13.8396688 37.9820659, 13.8396694 37.9820656, 13.8396789 37.9820616, 13.8396896 37.9820622, 13.8396984 37.9820671, 13.8397027 37.982076, 13.8396995 37.9820853, 13.8396901 37.9820913, 13.8396898 37.9820915, 13.8397213 37.98213, 13.8396956 37.9821431, 13.8396959 37.9821434, 13.8397012 37.9821508, 13.8397008 37.9821592, 13.8396949 37.9821663, 13.8396837 37.98217, 13.8396719 37.9821678, 13.8396639 37.9821606, 13.8396631 37.9821596, 13.839637 37.9821728, 13.8396064 37.9821353))",way,,,,
194,,,923619124,1617081085,,,1,,,,,,,,,,,theatre,,,,,,"POLYGON ((13.837586 37.9831304, 13.8376379 37.9829374, 13.8376491 37.9828958, 13.8376866 37.9828715, 13.8377414 37.9828813, 13.8380165 37.9829307, 13.8379562 37.9830628, 13.8378932 37.9831146, 13.8378194 37.9831452, 13.8377349 37.98316, 13.8376638 37.9831558, 13.837586 37.9831304))",way,,,,
195,,,926546483,1617695333,,"{""name:en"":""Pretoria Fountain"",""name:es"":""Fontana Pretoria"",""name:ko"":""\uD504\uB808\uD1A0\uB9AC\uC544 \uBD84\uC218"",""natural"":""water"",""tourism"":""attraction"",""wikidata"":""Q1435817""}",1,,,,,,Fontana Pretoria,,,,,fountain,,,,,it:Fontana Pretoria,"POLYGON ((13.3621985 38.115538, 13.3621724 38.1155631, 13.362138 38.1155809, 13.3620985 38.1155899, 13.3620574 38.1155893, 13.3620183 38.1155791, 13.3619848 38.1155603, 13.3619599 38.1155345, 13.3619459 38.115504, 13.361944 38.1154717, 13.3619544 38.1154403, 13.3619757 38.1154131, 13.3620063 38.115392, 13.3620434 38.1153789, 13.3620838 38.1153749, 13.3621239 38.1153804, 13.3621601 38.115395, 13.3621894 38.1154172, 13.3622091 38.1154452, 13.3622175 38.1154765, 13.3622138 38.1155084, 13.3621985 38.115538))",way,,,,
196,,,926546484,1617695333,,"{""natural"":""water""}",1,,,,,,,,,,,fountain,,,,,,"POLYGON ((13.3629444 38.1154976, 13.3629508 38.115502, 13.3629551 38.1155078, 13.3629568 38.1155144, 13.3629557 38.1155211, 13.3629519 38.1155272, 13.3629459 38.1155319, 13.3629382 38.1155349, 13.3629297 38.1155358, 13.3629213 38.1155345, 13.3629137 38.115531, 13.362908 38.1155258, 13.3629048 38.1155193, 13.3629045 38.1155124, 13.3629072 38.1155058, 13.3629124 38.1155002, 13.3629197 38.1154964, 13.3629279 38.1154946, 13.3629365 38.115495, 13.3629444 38.1154976))",way,,,,
197,,,956284605,1624190894,,,1,,,,,,,,,,,theatre,,,,,,"POLYGON ((13.2562114 37.9759645, 13.2562602 37.9760047, 13.2562899 37.9760551, 13.2563008 37.9760928, 13.2563552 37.9761936, 13.2563846 37.9762471, 13.2560038 37.9762702, 13.2559711 37.9762426, 13.2559273 37.9762188, 13.2558868 37.9761725, 13.2558677 37.9761184, 13.2558721 37.9760623, 13.2558994 37.9760104, 13.2559467 37.9759684, 13.2560088 37.9759408, 13.256079 37.9759307, 13.2561487 37.9759389, 13.2562114 37.9759645))",way,yes,,,
198,,,961645526,1625500399,,,1,,,,,,,,,,,fountain,,,,,,"POLYGON ((13.2285439 37.876338, 13.2285388 37.8763652, 13.2285542 37.8763882, 13.2285955 37.8764018, 13.2286024 37.8763774, 13.2285714 37.8763421, 13.2285439 37.876338))",way,,,,
199,,,997750792,1635618474,,,1,,,,,,Anfiteatro all'aperto,,,,,theatre,,,,,,"POLYGON ((13.8907046 37.8243015, 13.8908506 37.8243195, 13.8909754 37.8242672, 13.8910279 37.8242231, 13.8911249 37.8242279, 13.8911774 37.8242059, 13.8911911 37.8241634, 13.8911282 37.8241259, 13.8910548 37.8241124, 13.8909716 37.8241154, 13.8908787 37.8241487, 13.8908435 37.8241651, 13.8907635 37.8241559, 13.8907259 37.8241656, 13.8906751 37.8241914, 13.8906055 37.8242155, 13.8906299 37.8242792, 13.8907046 37.8243015))",way,yes,,,
